stop_id,stop_name,similar_stop_id,similar_stop_name
S0904000001,鹿沼駅,S0904000001,鹿沼駅
S090400000100100,鹿沼駅,S0904000001,鹿沼駅
S090400000100200,鹿沼駅,S0904000001,鹿沼駅
S090400000100300,鹿沼駅,S0904000001,鹿沼駅
S090400000100400,鹿沼駅,S0904000001,鹿沼駅
S0904000002,府所,S0904000002,府所
S090400000200100,府所,S0904000002,府所
S090400000200200,府所,S0904000002,府所
S0904000003,朝日町,S0904000003,朝日町
S090400000300100,朝日町,S0904000003,朝日町
S090400000300200,朝日町,S0904000003,朝日町
S0904000004,上田町,S0904000004,上田町
S090400000400100,上田町,S0904000004,上田町
S0904000005,天神町,S0904000005,天神町
S090400000500100,天神町,S0904000005,天神町
S090400000500200,天神町,S0904000005,天神町
S0904000006,久保町,S0904000006,久保町
S090400000600100,久保町,S0904000006,久保町
S090400000600200,久保町,S0904000006,久保町
S0904000012,鳥居跡町,S0904000012,鳥居跡町
S090400001200100,鳥居跡町,S0904000012,鳥居跡町
S090400001200200,鳥居跡町,S0904000012,鳥居跡町
S0904000013,鹿沼商工入口,S0904000013,鹿沼商工入口
S090400001300100,鹿沼商工入口,S0904000013,鹿沼商工入口
S090400001300200,鹿沼商工入口,S0904000013,鹿沼商工入口
S0904000014,鹿沼営業所,S0904000014,鹿沼営業所
S090400001400100,鹿沼営業所,S0904000014,鹿沼営業所
S0904000015,おもちゃのまち駅,S0904000015,おもちゃのまち駅
S090400001500100,おもちゃのまち駅,S0904000015,おもちゃのまち駅
S0904000016,助谷入口,S0904000016,助谷入口
S090400001600100,助谷入口,S0904000016,助谷入口
S090400001600200,助谷入口,S0904000016,助谷入口
S090400001600101,助谷入口,S0904000016,助谷入口
S090400001600201,助谷入口,S0904000016,助谷入口
S0904000017,獨協医大入口,S0904000017,獨協医大入口
S090400001700100,獨協医大入口,S0904000017,獨協医大入口
S0904000018,獨協医大病院前,S0904000018,獨協医大病院前
S090400001800100,獨協医大病院前,S0904000018,獨協医大病院前
S0904000019,宇都宮グリーンタウン,S0904000019,宇都宮グリーンタウン
S090400001900100,宇都宮グリーンタウン,S0904000019,宇都宮グリーンタウン
S090400001900200,宇都宮グリーンタウン,S0904000019,宇都宮グリーンタウン
S0904000020,グリーンタウン西,S0904000020,グリーンタウン西
S090400002000100,グリーンタウン西,S0904000020,グリーンタウン西
S090400002000200,グリーンタウン西,S0904000020,グリーンタウン西
S0904000021,グリーンタウン中央,S0904000021,グリーンタウン中央
S090400002100100,グリーンタウン中央,S0904000021,グリーンタウン中央
S090400002100200,グリーンタウン中央,S0904000021,グリーンタウン中央
S0904000022,グリーンタウン東,S0904000022,グリーンタウン東
S090400002200100,グリーンタウン東,S0904000022,グリーンタウン東
S090400002200200,グリーンタウン東,S0904000022,グリーンタウン東
S0904000023,宇都宮グリーンタウン入口,S0904000023,宇都宮グリーンタウン入口
S090400002300100,宇都宮グリーンタウン入口,S0904000023,宇都宮グリーンタウン入口
S090400002300200,宇都宮グリーンタウン入口,S0904000023,宇都宮グリーンタウン入口
S0904000024,立伏,S0904000024,立伏
S090400002400100,立伏,S0904000024,立伏
S090400002400200,立伏,S0904000024,立伏
S0904000025,太陽ヶ丘団地入口,S0904000025,太陽ヶ丘団地入口
S090400002500100,太陽ヶ丘団地入口,S0904000025,太陽ヶ丘団地入口
S090400002500200,太陽ヶ丘団地入口,S0904000025,太陽ヶ丘団地入口
S0904000026,自由ヶ丘団地入口,S0904000026,自由ヶ丘団地入口
S090400002600100,自由ヶ丘団地入口,S0904000026,自由ヶ丘団地入口
S090400002600200,自由ヶ丘団地入口,S0904000026,自由ヶ丘団地入口
S0904000027,田原小学校,S0904000027,田原小学校
S090400002700100,田原小学校,S0904000027,田原小学校
S090400002700200,田原小学校,S0904000027,田原小学校
S0904000028,田原中学校前,S0904000028,田原中学校前
S090400002800100,田原中学校前,S0904000028,田原中学校前
S090400002800200,田原中学校前,S0904000028,田原中学校前
S0904000029,下田原交差点,S0904000029,下田原交差点
S090400002900100,下田原交差点,S0904000029,下田原交差点
S090400002900200,下田原交差点,S0904000029,下田原交差点
S090400002900300,下田原交差点,S0904000029,下田原交差点
S090400002900400,下田原交差点,S0904000029,下田原交差点
S0904000030,下田原,S0904000030,下田原
S090400003000100,下田原,S0904000030,下田原
S090400003000200,下田原,S0904000030,下田原
S0904000031,山田橋,S0904000031,山田橋
S090400003100100,山田橋,S0904000031,山田橋
S090400003100200,山田橋,S0904000031,山田橋
S0904000032,塚原,S0904000032,塚原
S090400003200100,塚原,S0904000032,塚原
S090400003200200,塚原,S0904000032,塚原
S0904000033,北山霊園前,S0904000033,北山霊園前
S090400003300100,北山霊園前,S0904000033,北山霊園前
S090400003300200,北山霊園前,S0904000033,北山霊園前
S0904000034,岩本,S0904000034,岩本
S090400003400100,岩本,S0904000034,岩本
S090400003400200,岩本,S0904000034,岩本
S0904000035,関沢,S0904000035,関沢
S090400003500100,関沢,S0904000035,関沢
S090400003500200,関沢,S0904000035,関沢
S0904000036,豊郷中学校前,S0904000036,豊郷中学校前
S090400003600100,豊郷中学校前,S0904000036,豊郷中学校前
S090400003600200,豊郷中学校前,S0904000036,豊郷中学校前
S0904000037,豊郷中央小前,S0904000037,豊郷中央小前
S090400003700100,豊郷中央小前,S0904000037,豊郷中央小前
S090400003700200,豊郷中央小前,S0904000037,豊郷中央小前
S090400003700300,豊郷中央小前,S0904000037,豊郷中央小前
S090400003700400,豊郷中央小前,S0904000037,豊郷中央小前
S090400003700500,豊郷中央小前,S0904000037,豊郷中央小前
S090400003700600,豊郷中央小前,S0904000037,豊郷中央小前
S0904000038,北高西,S0904000038,北高西
S090400003800100,北高西,S0904000038,北高西
S090400003800200,北高西,S0904000038,北高西
S0904000039,岩曽西,S0904000039,岩曽西
S090400003900100,岩曽西,S0904000039,岩曽西
S090400003900200,岩曽西,S0904000039,岩曽西
S0904000040,富士見が丘入口,S0904000040,富士見が丘入口
S090400004000100,富士見が丘入口,S0904000040,富士見が丘入口
S090400004000200,富士見が丘入口,S0904000040,富士見が丘入口
S0904000041,山本,S0904000041,山本
S090400004100100,山本,S0904000041,山本
S090400004100200,山本,S0904000041,山本
S0904000042,上大曽,S0904000042,上大曽
S090400004200100,上大曽,S0904000042,上大曽
S090400004200200,上大曽,S0904000042,上大曽
S0904000043,大曽十文字,S0904000043,大曽十文字
S090400004300100,大曽十文字,S0904000043,大曽十文字
S090400004300200,大曽十文字,S0904000043,大曽十文字
S0904000044,宇商高校前,S0904000044,宇商高校前
S090400004400100,宇商高校前,S0904000044,宇商高校前
S090400004400200,宇商高校前,S0904000044,宇商高校前
S0904000045,大曽一丁目,S0904000045,大曽一丁目
S090400004500100,大曽一丁目,S0904000045,大曽一丁目
S090400004500200,大曽一丁目,S0904000045,大曽一丁目
S0904000046,東校西,S0904000046,東校西
S090400004600100,東校西,S0904000046,東校西
S090400004600200,東校西,S0904000046,東校西
S0904000047,塙田十文字,S0904000047,塙田十文字
S090400004700100,塙田十文字,S0904000047,塙田十文字
S090400004700200,塙田十文字,S0904000047,塙田十文字
S0904000048,宮島町十文字,S0904000048,宮島町十文字
S090400004800100,宮島町十文字,S0904000048,宮島町十文字
S090400004800200,宮島町十文字,S0904000048,宮島町十文字
S090400004800300,宮島町十文字,S0904000048,宮島町十文字
S090400004800400,宮島町十文字,S0904000048,宮島町十文字
S090400004800101,宮島町十文字,S0904000048,宮島町十文字
S090400004800201,宮島町十文字,S0904000048,宮島町十文字
S090400004800301,宮島町十文字,S0904000048,宮島町十文字
S090400004800401,宮島町十文字,S0904000048,宮島町十文字
S0904000049,大工町,S0904000049,大工町
S090400004900100,大工町,S0904000049,大工町
S090400004900200,大工町,S0904000049,大工町
S090400004900101,大工町,S0904000049,大工町
S090400004900201,大工町,S0904000049,大工町
S0904000050,上河原,S0904000050,上河原
S090400005000100,上河原,S0904000050,上河原
S090400005000200,上河原,S0904000050,上河原
S090400005000101,上河原,S0904000050,上河原
S090400005000201,上河原,S0904000050,上河原
S0904000051,宮の橋,S0904000051,宮の橋
S090400005100100,宮の橋,S0904000051,宮の橋
S090400005100101,宮の橋,S0904000051,宮の橋
S0904000052,宇都宮駅西口,S0904000052,宇都宮駅西口
S090400005200100,宇都宮駅西口,S0904000052,宇都宮駅西口
S090400005200200,宇都宮駅西口,S0904000052,宇都宮駅西口
S090400005200300,宇都宮駅西口,S0904000052,宇都宮駅西口
S090400005200400,宇都宮駅西口,S0904000052,宇都宮駅西口
S090400005200500,宇都宮駅西口,S0904000052,宇都宮駅西口
S090400005200600,宇都宮駅西口,S0904000052,宇都宮駅西口
S090400005200700,宇都宮駅西口,S0904000052,宇都宮駅西口
S090400005200800,宇都宮駅西口,S0904000052,宇都宮駅西口
S090400005200900,宇都宮駅西口,S0904000052,宇都宮駅西口
S090400005201000,宇都宮駅西口,S0904000052,宇都宮駅西口
S090400005201100,宇都宮駅西口,S0904000052,宇都宮駅西口
S090400005201200,宇都宮駅西口,S0904000052,宇都宮駅西口
S090400005201400,宇都宮駅西口,S0904000052,宇都宮駅西口
S090400005201500,宇都宮駅西口,S0904000052,宇都宮駅西口
S090400005201501,宇都宮駅西口,S0904000052,宇都宮駅西口
S0904000053,馬場町,S0904000053,馬場町
S090400005300100,馬場町,S0904000053,馬場町
S090400005300200,馬場町,S0904000053,馬場町
S090400005300300,馬場町,S0904000053,馬場町
S090400005300400,馬場町,S0904000053,馬場町
S090400005300500,馬場町,S0904000053,馬場町
S090400005300501,馬場町,S0904000053,馬場町
S0904000054,県庁前（栃木）,S0904000054,県庁前（栃木）
S090400005400100,県庁前（栃木）,S0904000054,県庁前（栃木）
S090400005400200,県庁前（栃木）,S0904000054,県庁前（栃木）
S090400005400300,県庁前（栃木）,S0904000054,県庁前（栃木）
S090400005400400,県庁前（栃木）,S0904000054,県庁前（栃木）
S090400005400500,県庁前（栃木）,S0904000054,県庁前（栃木）
S090400005400600,県庁前（栃木）,S0904000054,県庁前（栃木）
S090400005400201,県庁前（栃木）,S0904000054,県庁前（栃木）
S0904000055,東武駅前,S0904000055,東武駅前
S090400005500100,東武駅前,S0904000055,東武駅前
S090400005500200,東武駅前,S0904000055,東武駅前
S0904000056,伝馬町,S0904000056,伝馬町
S090400005600100,伝馬町,S0904000056,伝馬町
S090400005600200,伝馬町,S0904000056,伝馬町
S090400005600300,伝馬町,S0904000056,伝馬町
S0904000057,裁判所前（宇都宮市）,S0904000057,裁判所前（宇都宮市）
S090400005700100,裁判所前（宇都宮市）,S0904000057,裁判所前（宇都宮市）
S090400005700200,裁判所前（宇都宮市）,S0904000057,裁判所前（宇都宮市）
S0904000058,新川,S0904000058,新川
S090400005800100,新川,S0904000058,新川
S090400005800200,新川,S0904000058,新川
S0904000059,桜小学校入口,S0904000059,桜小学校入口
S090400005900100,桜小学校入口,S0904000059,桜小学校入口
S090400005900200,桜小学校入口,S0904000059,桜小学校入口
S0904000060,桜通十文字,S0904000060,桜通十文字
S090400006000100,桜通十文字,S0904000060,桜通十文字
S090400006000200,桜通十文字,S0904000060,桜通十文字
S090400006000300,桜通十文字,S0904000060,桜通十文字
S090400006000400,桜通十文字,S0904000060,桜通十文字
S090400006000500,桜通十文字,S0904000060,桜通十文字
S090400006000600,桜通十文字,S0904000060,桜通十文字
S0904000061,関東自動車整備前,S0904000061,関東自動車整備前
S090400006100100,関東自動車整備前,S0904000061,関東自動車整備前
S090400006100200,関東自動車整備前,S0904000061,関東自動車整備前
S0904000062,作新学院前,S0904000062,作新学院前
S090400006200100,作新学院前,S0904000062,作新学院前
S090400006200200,作新学院前,S0904000062,作新学院前
S090400006200300,作新学院前,S0904000062,作新学院前
S090400006200400,作新学院前,S0904000062,作新学院前
S0904000063,陽西中西,S0904000063,陽西中西
S090400006300100,陽西中西,S0904000063,陽西中西
S090400006300200,陽西中西,S0904000063,陽西中西
S0904000064,東中丸,S0904000064,東中丸
S090400006400100,東中丸,S0904000064,東中丸
S090400006400200,東中丸,S0904000064,東中丸
S0904000065,中丸,S0904000065,中丸
S090400006500100,中丸,S0904000065,中丸
S090400006500200,中丸,S0904000065,中丸
S0904000066,西中丸,S0904000066,西中丸
S090400006600100,西中丸,S0904000066,西中丸
S090400006600200,西中丸,S0904000066,西中丸
S0904000067,駒生町,S0904000067,駒生町
S090400006700100,駒生町,S0904000067,駒生町
S090400006700200,駒生町,S0904000067,駒生町
S0904000068,中丸公園前,S0904000068,中丸公園前
S090400006800100,中丸公園前,S0904000068,中丸公園前
S090400006800200,中丸公園前,S0904000068,中丸公園前
S0904000069,挟又局前,S0904000069,挟又局前
S090400006900100,挟又局前,S0904000069,挟又局前
S090400006900200,挟又局前,S0904000069,挟又局前
S0904000070,とちぎ健康の森,S0904000070,とちぎ健康の森
S090400007000100,とちぎ健康の森,S0904000070,とちぎ健康の森
S0904000071,リハビリテーションセンター,S0904000071,リハビリテーションセンター
S090400007100100,リハビリテーションセンター,S0904000071,リハビリテーションセンター
S0904000072,駒生営業所,S0904000072,駒生営業所
S090400007200100,駒生営業所,S0904000072,駒生営業所
S090400007200200,駒生営業所,S0904000072,駒生営業所
S0904000073,新谷十文字,S0904000073,新谷十文字
S090400007300100,新谷十文字,S0904000073,新谷十文字
S090400007300200,新谷十文字,S0904000073,新谷十文字
S0904000074,上宝井,S0904000074,上宝井
S090400007400100,上宝井,S0904000074,上宝井
S090400007400200,上宝井,S0904000074,上宝井
S0904000075,下宝井,S0904000075,下宝井
S090400007500100,下宝井,S0904000075,下宝井
S090400007500200,下宝井,S0904000075,下宝井
S0904000076,芝原十文字,S0904000076,芝原十文字
S090400007600100,芝原十文字,S0904000076,芝原十文字
S090400007600200,芝原十文字,S0904000076,芝原十文字
S0904000077,大塚公民館前,S0904000077,大塚公民館前
S090400007700100,大塚公民館前,S0904000077,大塚公民館前
S090400007700200,大塚公民館前,S0904000077,大塚公民館前
S0904000078,下大塚,S0904000078,下大塚
S090400007800100,下大塚,S0904000078,下大塚
S090400007800200,下大塚,S0904000078,下大塚
S0904000079,古川橋,S0904000079,古川橋
S090400007900100,古川橋,S0904000079,古川橋
S090400007900200,古川橋,S0904000079,古川橋
S0904000080,川俣農業倉庫,S0904000080,川俣農業倉庫
S090400008000100,川俣農業倉庫,S0904000080,川俣農業倉庫
S090400008000200,川俣農業倉庫,S0904000080,川俣農業倉庫
S0904000081,西川俣,S0904000081,西川俣
S090400008100100,西川俣,S0904000081,西川俣
S090400008100200,西川俣,S0904000081,西川俣
S0904000082,文星女子高入口,S0904000082,文星女子高入口
S090400008200100,文星女子高入口,S0904000082,文星女子高入口
S090400008200200,文星女子高入口,S0904000082,文星女子高入口
S0904000083,桜四丁目,S0904000083,桜四丁目
S090400008300100,桜四丁目,S0904000083,桜四丁目
S090400008300200,桜四丁目,S0904000083,桜四丁目
S0904000084,戸祭一丁目,S0904000084,戸祭一丁目
S090400008400100,戸祭一丁目,S0904000084,戸祭一丁目
S090400008400200,戸祭一丁目,S0904000084,戸祭一丁目
S0904000085,仁良塚街道入口,S0904000085,仁良塚街道入口
S090400008500100,仁良塚街道入口,S0904000085,仁良塚街道入口
S090400008500200,仁良塚街道入口,S0904000085,仁良塚街道入口
S0904000086,仏所護念会入口,S0904000086,仏所護念会入口
S090400008600100,仏所護念会入口,S0904000086,仏所護念会入口
S090400008600200,仏所護念会入口,S0904000086,仏所護念会入口
S0904000087,体育館前,S0904000087,体育館前
S090400008700100,体育館前,S0904000087,体育館前
S090400008700200,体育館前,S0904000087,体育館前
S0904000088,栃木医療センター前,S0904000088,栃木医療センター前
S090400008800100,栃木医療センター前,S0904000088,栃木医療センター前
S090400008800200,栃木医療センター前,S0904000088,栃木医療センター前
S0904000089,中戸祭,S0904000089,中戸祭
S090400008900100,中戸祭,S0904000089,中戸祭
S090400008900200,中戸祭,S0904000089,中戸祭
S090400008900300,中戸祭,S0904000089,中戸祭
S0904000090,長岡街道入口,S0904000090,長岡街道入口
S090400009000100,長岡街道入口,S0904000090,長岡街道入口
S090400009000200,長岡街道入口,S0904000090,長岡街道入口
S0904000091,上戸祭小入口,S0904000091,上戸祭小入口
S090400009100100,上戸祭小入口,S0904000091,上戸祭小入口
S090400009100200,上戸祭小入口,S0904000091,上戸祭小入口
S0904000092,細谷新道口,S0904000092,細谷新道口
S090400009200100,細谷新道口,S0904000092,細谷新道口
S090400009200200,細谷新道口,S0904000092,細谷新道口
S0904000093,上戸祭四丁目,S0904000093,上戸祭四丁目
S090400009300100,上戸祭四丁目,S0904000093,上戸祭四丁目
S090400009300200,上戸祭四丁目,S0904000093,上戸祭四丁目
S0904000094,文星大学前,S0904000094,文星大学前
S090400009400100,文星大学前,S0904000094,文星大学前
S090400009400200,文星大学前,S0904000094,文星大学前
S0904000095,とちぎ男女共同参画センター,S0904000095,とちぎ男女共同参画センター
S090400009500100,とちぎ男女共同参画センター,S0904000095,とちぎ男女共同参画センター
S090400009500200,とちぎ男女共同参画センター,S0904000095,とちぎ男女共同参画センター
S0904000096,弁天橋,S0904000096,弁天橋
S090400009600100,弁天橋,S0904000096,弁天橋
S090400009600200,弁天橋,S0904000096,弁天橋
S0904000097,野沢寺前,S0904000097,野沢寺前
S090400009700100,野沢寺前,S0904000097,野沢寺前
S090400009700200,野沢寺前,S0904000097,野沢寺前
S0904000098,大杉屋,S0904000098,大杉屋
S090400009800100,大杉屋,S0904000098,大杉屋
S090400009800200,大杉屋,S0904000098,大杉屋
S0904000099,下金井,S0904000099,下金井
S090400009900100,下金井,S0904000099,下金井
S090400009900200,下金井,S0904000099,下金井
S0904000100,上金井,S0904000100,上金井
S090400010000100,上金井,S0904000100,上金井
S090400010000200,上金井,S0904000100,上金井
S0904000101,下徳次郎,S0904000101,下徳次郎
S090400010100100,下徳次郎,S0904000101,下徳次郎
S090400010100200,下徳次郎,S0904000101,下徳次郎
S0904000102,山王団地入口,S0904000102,山王団地入口
S090400010200100,山王団地入口,S0904000102,山王団地入口
S090400010200200,山王団地入口,S0904000102,山王団地入口
S090400010200300,山王団地入口,S0904000102,山王団地入口
S0904000103,富屋小学校前,S0904000103,富屋小学校前
S090400010300100,富屋小学校前,S0904000103,富屋小学校前
S090400010300200,富屋小学校前,S0904000103,富屋小学校前
S0904000104,中徳次郎,S0904000104,中徳次郎
S090400010400100,中徳次郎,S0904000104,中徳次郎
S090400010400200,中徳次郎,S0904000104,中徳次郎
S0904000105,晃陽中前,S0904000105,晃陽中前
S090400010500100,晃陽中前,S0904000105,晃陽中前
S090400010500200,晃陽中前,S0904000105,晃陽中前
S0904000106,六本杉,S0904000106,六本杉
S090400010600100,六本杉,S0904000106,六本杉
S090400010600200,六本杉,S0904000106,六本杉
S0904000107,大網入口,S0904000107,大網入口
S090400010700100,大網入口,S0904000107,大網入口
S090400010700200,大網入口,S0904000107,大網入口
S0904000108,上徳次郎,S0904000108,上徳次郎
S090400010800100,上徳次郎,S0904000108,上徳次郎
S090400010800200,上徳次郎,S0904000108,上徳次郎
S0904000109,一里塚,S0904000109,一里塚
S090400010900100,一里塚,S0904000109,一里塚
S090400010900200,一里塚,S0904000109,一里塚
S0904000110,榊里,S0904000110,榊里
S090400011000100,榊里,S0904000110,榊里
S090400011000200,榊里,S0904000110,榊里
S0904000111,石那田,S0904000111,石那田
S090400011100100,石那田,S0904000111,石那田
S090400011100200,石那田,S0904000111,石那田
S090400011100300,石那田,S0904000111,石那田
S090400011100400,石那田,S0904000111,石那田
S090400011100500,石那田,S0904000111,石那田
S0904000112,石那田中央,S0904000112,石那田中央
S090400011200100,石那田中央,S0904000112,石那田中央
S090400011200200,石那田中央,S0904000112,石那田中央
S0904000113,海老王子,S0904000113,海老王子
S090400011300100,海老王子,S0904000113,海老王子
S090400011300200,海老王子,S0904000113,海老王子
S0904000114,原石那田,S0904000114,原石那田
S090400011400100,原石那田,S0904000114,原石那田
S090400011400200,原石那田,S0904000114,原石那田
S0904000115,松本,S0904000115,松本
S090400011500100,松本,S0904000115,松本
S090400011500200,松本,S0904000115,松本
S0904000116,上小池,S0904000116,上小池
S090400011600100,上小池,S0904000116,上小池
S090400011600200,上小池,S0904000116,上小池
S0904000117,山口,S0904000117,山口
S090400011700100,山口,S0904000117,山口
S090400011700200,山口,S0904000117,山口
S0904000118,青少年スポーツセンター口,S0904000118,青少年スポーツセンター口
S090400011800100,青少年スポーツセンター口,S0904000118,青少年スポーツセンター口
S090400011800200,青少年スポーツセンター口,S0904000118,青少年スポーツセンター口
S0904000119,大沢並木入口,S0904000119,大沢並木入口
S090400011900100,大沢並木入口,S0904000119,大沢並木入口
S090400011900200,大沢並木入口,S0904000119,大沢並木入口
S0904000120,下大沢,S0904000120,下大沢
S090400012000100,下大沢,S0904000120,下大沢
S090400012000200,下大沢,S0904000120,下大沢
S0904000121,神崎前,S0904000121,神崎前
S090400012100100,神崎前,S0904000121,神崎前
S0904000122,大沢小学校入口,S0904000122,大沢小学校入口
S090400012200100,大沢小学校入口,S0904000122,大沢小学校入口
S090400012200200,大沢小学校入口,S0904000122,大沢小学校入口
S0904000123,御殿工場入口,S0904000123,御殿工場入口
S090400012300100,御殿工場入口,S0904000123,御殿工場入口
S090400012300200,御殿工場入口,S0904000123,御殿工場入口
S0904000124,下水無,S0904000124,下水無
S090400012400100,下水無,S0904000124,下水無
S090400012400200,下水無,S0904000124,下水無
S0904000125,上水無,S0904000125,上水無
S090400012500100,上水無,S0904000125,上水無
S090400012500200,上水無,S0904000125,上水無
S0904000126,シドミ原,S0904000126,シドミ原
S090400012600100,シドミ原,S0904000126,シドミ原
S090400012600200,シドミ原,S0904000126,シドミ原
S0904000127,下森友,S0904000127,下森友
S090400012700100,下森友,S0904000127,下森友
S090400012700200,下森友,S0904000127,下森友
S0904000128,中森友,S0904000128,中森友
S090400012800100,中森友,S0904000128,中森友
S090400012800200,中森友,S0904000128,中森友
S0904000129,上森友,S0904000129,上森友
S090400012900100,上森友,S0904000129,上森友
S090400012900200,上森友,S0904000129,上森友
S0904000130,今市日産前,S0904000130,今市日産前
S090400013000100,今市日産前,S0904000130,今市日産前
S090400013000200,今市日産前,S0904000130,今市日産前
S0904000131,七本桜,S0904000131,七本桜
S090400013100100,七本桜,S0904000131,七本桜
S090400013100200,七本桜,S0904000131,七本桜
S0904000132,日光市役所,S0904000132,日光市役所
S090400013200100,日光市役所,S0904000132,日光市役所
S090400013200200,日光市役所,S0904000132,日光市役所
S0904000133,鹿沼街道入口,S0904000133,鹿沼街道入口
S090400013300100,鹿沼街道入口,S0904000133,鹿沼街道入口
S090400013300200,鹿沼街道入口,S0904000133,鹿沼街道入口
S0904000134,下今市,S0904000134,下今市
S090400013400100,下今市,S0904000134,下今市
S090400013400200,下今市,S0904000134,下今市
S0904000136,小倉町,S0904000136,小倉町
S090400013600100,小倉町,S0904000136,小倉町
S0904000137,相の道,S0904000137,相の道
S090400013700100,相の道,S0904000137,相の道
S090400013700200,相の道,S0904000137,相の道
S0904000138,春日町一丁目,S0904000138,春日町一丁目
S090400013800100,春日町一丁目,S0904000138,春日町一丁目
S090400013800200,春日町一丁目,S0904000138,春日町一丁目
S0904000139,上今市,S0904000139,上今市
S090400013900100,上今市,S0904000139,上今市
S090400013900200,上今市,S0904000139,上今市
S0904000140,今市車庫,S0904000140,今市車庫
S090400014000100,今市車庫,S0904000140,今市車庫
S090400014000200,今市車庫,S0904000140,今市車庫
S090400014000300,今市車庫,S0904000140,今市車庫
S0904000141,瀬川,S0904000141,瀬川
S090400014100100,瀬川,S0904000141,瀬川
S090400014100200,瀬川,S0904000141,瀬川
S0904000142,野口十文字,S0904000142,野口十文字
S090400014200100,野口十文字,S0904000142,野口十文字
S090400014200200,野口十文字,S0904000142,野口十文字
S0904000143,野口石橋,S0904000143,野口石橋
S090400014300100,野口石橋,S0904000143,野口石橋
S090400014300200,野口石橋,S0904000143,野口石橋
S0904000144,野口小学校前,S0904000144,野口小学校前
S090400014400100,野口小学校前,S0904000144,野口小学校前
S090400014400200,野口小学校前,S0904000144,野口小学校前
S0904000145,生岡神社前,S0904000145,生岡神社前
S090400014500100,生岡神社前,S0904000145,生岡神社前
S090400014500200,生岡神社前,S0904000145,生岡神社前
S0904000146,七里,S0904000146,七里
S090400014600100,七里,S0904000146,七里
S090400014600200,七里,S0904000146,七里
S0904000147,ＪＲ日光駅,S0904000147,ＪＲ日光駅
S090400014700100,ＪＲ日光駅,S0904000147,ＪＲ日光駅
S090400014700200,ＪＲ日光駅,S0904000147,ＪＲ日光駅
S0904000148,宇都宮駅東口,S0904000148,宇都宮駅東口
S090400014800100,宇都宮駅東口,S0904000148,宇都宮駅東口
S090400014800200,宇都宮駅東口,S0904000148,宇都宮駅東口
S090400014800300,宇都宮駅東口,S0904000148,宇都宮駅東口
S090400014800301,宇都宮駅東口,S0904000148,宇都宮駅東口
S0904000149,宿郷町,S0904000149,宿郷町
S090400014900100,宿郷町,S0904000149,宿郷町
S090400014900200,宿郷町,S0904000149,宿郷町
S090400014900201,宿郷町,S0904000149,宿郷町
S0904000156,ベルモール,S0904000156,ベルモール
S090400015600100,ベルモール,S0904000156,ベルモール
S090400015600101,ベルモール,S0904000156,ベルモール
S0904000157,ベルモール入口,S0904000157,ベルモール入口
S090400015700200,ベルモール入口,S0904000157,ベルモール入口
S090400015700300,ベルモール入口,S0904000157,ベルモール入口
S0904000163,柳田車庫,S0904000163,柳田車庫
S090400016300100,柳田車庫,S0904000163,柳田車庫
S0904000164,宮の橋南,S0904000164,宮の橋南
S090400016400100,宮の橋南,S0904000164,宮の橋南
S090400016400200,宮の橋南,S0904000164,宮の橋南
S0904000165,宿郷西,S0904000165,宿郷西
S090400016500100,宿郷西,S0904000165,宿郷西
S090400016500200,宿郷西,S0904000165,宿郷西
S0904000166,簗瀬小入口,S0904000166,簗瀬小入口
S090400016600100,簗瀬小入口,S0904000166,簗瀬小入口
S090400016600200,簗瀬小入口,S0904000166,簗瀬小入口
S0904000167,簗瀬西,S0904000167,簗瀬西
S090400016700100,簗瀬西,S0904000167,簗瀬西
S090400016700200,簗瀬西,S0904000167,簗瀬西
S0904000168,旭陵橋東,S0904000168,旭陵橋東
S090400016800100,旭陵橋東,S0904000168,旭陵橋東
S090400016800200,旭陵橋東,S0904000168,旭陵橋東
S0904000169,栃木日産前,S0904000169,栃木日産前
S090400016900100,栃木日産前,S0904000169,栃木日産前
S090400016900200,栃木日産前,S0904000169,栃木日産前
S0904000170,ＳＵＢＡＲＵ前,S0904000170,ＳＵＢＡＲＵ前
S090400017000100,ＳＵＢＡＲＵ前,S0904000170,ＳＵＢＡＲＵ前
S090400017000200,ＳＵＢＡＲＵ前,S0904000170,ＳＵＢＡＲＵ前
S0904000171,川田入口,S0904000171,川田入口
S090400017100100,川田入口,S0904000171,川田入口
S090400017100200,川田入口,S0904000171,川田入口
S090400017100300,川田入口,S0904000171,川田入口
S090400017100400,川田入口,S0904000171,川田入口
S0904000172,陽南中学校前,S0904000172,陽南中学校前
S090400017200100,陽南中学校前,S0904000172,陽南中学校前
S090400017200200,陽南中学校前,S0904000172,陽南中学校前
S0904000173,自動車学校入口,S0904000173,自動車学校入口
S090400017300100,自動車学校入口,S0904000173,自動車学校入口
S090400017300200,自動車学校入口,S0904000173,自動車学校入口
S0904000174,江曽島郵便局,S0904000174,江曽島郵便局
S090400017400100,江曽島郵便局,S0904000174,江曽島郵便局
S090400017400200,江曽島郵便局,S0904000174,江曽島郵便局
S0904000175,スーパーオータニ江曽島店,S0904000175,スーパーオータニ江曽島店
S090400017500100,スーパーオータニ江曽島店,S0904000175,スーパーオータニ江曽島店
S090400017500200,スーパーオータニ江曽島店,S0904000175,スーパーオータニ江曽島店
S0904000176,龍泉院,S0904000176,龍泉院
S090400017600100,龍泉院,S0904000176,龍泉院
S090400017600200,龍泉院,S0904000176,龍泉院
S0904000177,江曽島４丁目,S0904000177,江曽島４丁目
S090400017700100,江曽島４丁目,S0904000177,江曽島４丁目
S090400017700200,江曽島４丁目,S0904000177,江曽島４丁目
S0904000178,今宮１丁目,S0904000178,今宮１丁目
S090400017800100,今宮１丁目,S0904000178,今宮１丁目
S090400017800200,今宮１丁目,S0904000178,今宮１丁目
S0904000179,栃木県自動車会館北,S0904000179,栃木県自動車会館北
S090400017900100,栃木県自動車会館北,S0904000179,栃木県自動車会館北
S090400017900200,栃木県自動車会館北,S0904000179,栃木県自動車会館北
S0904000180,今宮２丁目,S0904000180,今宮２丁目
S090400018000100,今宮２丁目,S0904000180,今宮２丁目
S090400018000200,今宮２丁目,S0904000180,今宮２丁目
S0904000181,栃木県動物愛護センター,S0904000181,栃木県動物愛護センター
S090400018100100,栃木県動物愛護センター,S0904000181,栃木県動物愛護センター
S090400018100200,栃木県動物愛護センター,S0904000181,栃木県動物愛護センター
S0904000182,総合運動公園南門,S0904000182,総合運動公園南門
S090400018200100,総合運動公園南門,S0904000182,総合運動公園南門
S090400018200200,総合運動公園南門,S0904000182,総合運動公園南門
S0904000183,北若松原,S0904000183,北若松原
S090400018300100,北若松原,S0904000183,北若松原
S090400018300200,北若松原,S0904000183,北若松原
S0904000184,西原北公民館,S0904000184,西原北公民館
S090400018400100,西原北公民館,S0904000184,西原北公民館
S090400018400200,西原北公民館,S0904000184,西原北公民館
S0904000185,若松原通り中央,S0904000185,若松原通り中央
S090400018500100,若松原通り中央,S0904000185,若松原通り中央
S090400018500200,若松原通り中央,S0904000185,若松原通り中央
S0904000186,若松原２丁目,S0904000186,若松原２丁目
S090400018600100,若松原２丁目,S0904000186,若松原２丁目
S090400018600200,若松原２丁目,S0904000186,若松原２丁目
S0904000187,北雀宮保育園入口,S0904000187,北雀宮保育園入口
S090400018700100,北雀宮保育園入口,S0904000187,北雀宮保育園入口
S090400018700200,北雀宮保育園入口,S0904000187,北雀宮保育園入口
S0904000188,雀宮駅入口,S0904000188,雀宮駅入口
S090400018800100,雀宮駅入口,S0904000188,雀宮駅入口
S090400018800200,雀宮駅入口,S0904000188,雀宮駅入口
S090400018800300,雀宮駅入口,S0904000188,雀宮駅入口
S090400018800400,雀宮駅入口,S0904000188,雀宮駅入口
S0904000189,雀宮駅,S0904000189,雀宮駅
S090400018900100,雀宮駅,S0904000189,雀宮駅
S0904000190,東武西口,S0904000190,東武西口
S090400019000100,東武西口,S0904000190,東武西口
S090400019000200,東武西口,S0904000190,東武西口
S0904000191,もみじ通り,S0904000191,もみじ通り
S090400019100100,もみじ通り,S0904000191,もみじ通り
S090400019100200,もみじ通り,S0904000191,もみじ通り
S0904000192,一条,S0904000192,一条
S090400019200100,一条,S0904000192,一条
S090400019200200,一条,S0904000192,一条
S0904000193,滝澤病院前,S0904000193,滝澤病院前
S090400019300100,滝澤病院前,S0904000193,滝澤病院前
S090400019300200,滝澤病院前,S0904000193,滝澤病院前
S0904000194,花房町,S0904000194,花房町
S090400019400100,花房町,S0904000194,花房町
S090400019400200,花房町,S0904000194,花房町
S0904000195,日星前,S0904000195,日星前
S090400019500100,日星前,S0904000195,日星前
S090400019500200,日星前,S0904000195,日星前
S0904000196,不動前,S0904000196,不動前
S090400019600100,不動前,S0904000196,不動前
S090400019600200,不動前,S0904000196,不動前
S0904000197,県立がんセンター前,S0904000197,県立がんセンター前
S090400019700100,県立がんセンター前,S0904000197,県立がんセンター前
S090400019700200,県立がんセンター前,S0904000197,県立がんセンター前
S0904000198,市営球場入口,S0904000198,市営球場入口
S090400019800100,市営球場入口,S0904000198,市営球場入口
S090400019800200,市営球場入口,S0904000198,市営球場入口
S0904000199,陽南小学校前,S0904000199,陽南小学校前
S090400019900100,陽南小学校前,S0904000199,陽南小学校前
S090400019900200,陽南小学校前,S0904000199,陽南小学校前
S0904000200,大和町［宇都宮市］,S0904000200,大和町［宇都宮市］
S090400020000100,大和町［宇都宮市］,S0904000200,大和町［宇都宮市］
S090400020000200,大和町［宇都宮市］,S0904000200,大和町［宇都宮市］
S0904000201,江曽島駅,S0904000201,江曽島駅
S090400020100100,江曽島駅,S0904000201,江曽島駅
S090400020100200,江曽島駅,S0904000201,江曽島駅
S0904000202,宮本町交番前,S0904000202,宮本町交番前
S090400020200100,宮本町交番前,S0904000202,宮本町交番前
S090400020200200,宮本町交番前,S0904000202,宮本町交番前
S0904000203,宮本町,S0904000203,宮本町
S090400020300100,宮本町,S0904000203,宮本町
S090400020300200,宮本町,S0904000203,宮本町
S0904000204,双葉町,S0904000204,双葉町
S090400020400100,双葉町,S0904000204,双葉町
S090400020400200,双葉町,S0904000204,双葉町
S0904000205,緑町,S0904000205,緑町
S090400020500100,緑町,S0904000205,緑町
S090400020500200,緑町,S0904000205,緑町
S0904000206,緑２丁目,S0904000206,緑２丁目
S090400020600100,緑２丁目,S0904000206,緑２丁目
S090400020600200,緑２丁目,S0904000206,緑２丁目
S0904000207,緑３丁目,S0904000207,緑３丁目
S090400020700100,緑３丁目,S0904000207,緑３丁目
S090400020700200,緑３丁目,S0904000207,緑３丁目
S0904000208,競馬場通り,S0904000208,競馬場通り
S090400020800100,競馬場通り,S0904000208,競馬場通り
S090400020800200,競馬場通り,S0904000208,競馬場通り
S0904000209,西川田東（江曽島）,S0904000209,西川田東（江曽島）
S090400020900100,西川田東（江曽島）,S0904000209,西川田東（江曽島）
S0904000210,文星芸術大学附属中高,S0904000210,文星芸術大学附属中高
S090400021000100,文星芸術大学附属中高,S0904000210,文星芸術大学附属中高
S090400021000200,文星芸術大学附属中高,S0904000210,文星芸術大学附属中高
S0904000211,睦町,S0904000211,睦町
S090400021100100,睦町,S0904000211,睦町
S090400021100200,睦町,S0904000211,睦町
S0904000212,三の沢,S0904000212,三の沢
S090400021200100,三の沢,S0904000212,三の沢
S090400021200200,三の沢,S0904000212,三の沢
S0904000213,西三の沢,S0904000213,西三の沢
S090400021300100,西三の沢,S0904000213,西三の沢
S090400021300200,西三の沢,S0904000213,西三の沢
S0904000214,鶴田橋,S0904000214,鶴田橋
S090400021400100,鶴田橋,S0904000214,鶴田橋
S090400021400200,鶴田橋,S0904000214,鶴田橋
S0904000215,羽黒下,S0904000215,羽黒下
S090400021500100,羽黒下,S0904000215,羽黒下
S090400021500200,羽黒下,S0904000215,羽黒下
S0904000216,野尻,S0904000216,野尻
S090400021600100,野尻,S0904000216,野尻
S090400021600200,野尻,S0904000216,野尻
S0904000217,姿川橋,S0904000217,姿川橋
S090400021700100,姿川橋,S0904000217,姿川橋
S090400021700200,姿川橋,S0904000217,姿川橋
S0904000218,共和大・宇短大入口,S0904000218,共和大・宇短大入口
S090400021800100,共和大・宇短大入口,S0904000218,共和大・宇短大入口
S090400021800200,共和大・宇短大入口,S0904000218,共和大・宇短大入口
S0904000219,共和大学・宇都宮短期大学,S0904000219,共和大学・宇都宮短期大学
S090400021900100,共和大学・宇都宮短期大学,S0904000219,共和大学・宇都宮短期大学
S0904000220,七久保入口,S0904000220,七久保入口
S090400022000100,七久保入口,S0904000220,七久保入口
S090400022000200,七久保入口,S0904000220,七久保入口
S0904000221,長坂坂上,S0904000221,長坂坂上
S090400022100100,長坂坂上,S0904000221,長坂坂上
S090400022100200,長坂坂上,S0904000221,長坂坂上
S0904000222,共生の丘,S0904000222,共生の丘
S090400022200100,共生の丘,S0904000222,共生の丘
S090400022200200,共生の丘,S0904000222,共生の丘
S0904000223,飯田,S0904000223,飯田
S090400022300100,飯田,S0904000223,飯田
S090400022300200,飯田,S0904000223,飯田
S0904000224,白桑田,S0904000224,白桑田
S090400022400100,白桑田,S0904000224,白桑田
S090400022400200,白桑田,S0904000224,白桑田
S0904000225,千渡東,S0904000225,千渡東
S090400022500100,千渡東,S0904000225,千渡東
S090400022500200,千渡東,S0904000225,千渡東
S0904000226,飯岡橋,S0904000226,飯岡橋
S090400022600100,飯岡橋,S0904000226,飯岡橋
S090400022600200,飯岡橋,S0904000226,飯岡橋
S0904000227,千渡,S0904000227,千渡
S090400022700100,千渡,S0904000227,千渡
S090400022700200,千渡,S0904000227,千渡
S0904000228,西千渡,S0904000228,西千渡
S090400022800100,西千渡,S0904000228,西千渡
S090400022800200,西千渡,S0904000228,西千渡
S0904000229,西久保入口,S0904000229,西久保入口
S090400022900100,西久保入口,S0904000229,西久保入口
S090400022900200,西久保入口,S0904000229,西久保入口
S0904000230,東町（鹿沼市）,S0904000230,東町（鹿沼市）
S090400023000100,東町（鹿沼市）,S0904000230,東町（鹿沼市）
S090400023000200,東町（鹿沼市）,S0904000230,東町（鹿沼市）
S0904000231,茂呂街道口,S0904000231,茂呂街道口
S090400023100100,茂呂街道口,S0904000231,茂呂街道口
S090400023100200,茂呂街道口,S0904000231,茂呂街道口
S0904000232,上野町交差点,S0904000232,上野町交差点
S090400023200100,上野町交差点,S0904000232,上野町交差点
S090400023200200,上野町交差点,S0904000232,上野町交差点
S0904000233,鹿沼高校入口,S0904000233,鹿沼高校入口
S090400023300100,鹿沼高校入口,S0904000233,鹿沼高校入口
S090400023300200,鹿沼高校入口,S0904000233,鹿沼高校入口
S0904000234,材木町,S0904000234,材木町
S090400023400100,材木町,S0904000234,材木町
S090400023400200,材木町,S0904000234,材木町
S0904000235,西校入口,S0904000235,西校入口
S090400023500100,西校入口,S0904000235,西校入口
S090400023500200,西校入口,S0904000235,西校入口
S0904000236,宇女高入口,S0904000236,宇女高入口
S090400023600100,宇女高入口,S0904000236,宇女高入口
S090400023600200,宇女高入口,S0904000236,宇女高入口
S0904000237,宇女高前,S0904000237,宇女高前
S090400023700100,宇女高前,S0904000237,宇女高前
S090400023700200,宇女高前,S0904000237,宇女高前
S0904000238,六道,S0904000238,六道
S090400023800100,六道,S0904000238,六道
S090400023800200,六道,S0904000238,六道
S090400023800300,六道,S0904000238,六道
S090400023800400,六道,S0904000238,六道
S0904000239,楡木街道入口,S0904000239,楡木街道入口
S090400023900100,楡木街道入口,S0904000239,楡木街道入口
S090400023900200,楡木街道入口,S0904000239,楡木街道入口
S090400023900300,楡木街道入口,S0904000239,楡木街道入口
S090400023900400,楡木街道入口,S0904000239,楡木街道入口
S0904000240,十九夜前,S0904000240,十九夜前
S090400024000100,十九夜前,S0904000240,十九夜前
S090400024000200,十九夜前,S0904000240,十九夜前
S0904000241,鶴田神社前,S0904000241,鶴田神社前
S090400024100100,鶴田神社前,S0904000241,鶴田神社前
S090400024100200,鶴田神社前,S0904000241,鶴田神社前
S0904000242,姿川第二小学校前,S0904000242,姿川第二小学校前
S090400024200100,姿川第二小学校前,S0904000242,姿川第二小学校前
S090400024200200,姿川第二小学校前,S0904000242,姿川第二小学校前
S0904000243,しらゆり幼児園,S0904000243,しらゆり幼児園
S090400024300100,しらゆり幼児園,S0904000243,しらゆり幼児園
S090400024300200,しらゆり幼児園,S0904000243,しらゆり幼児園
S0904000244,上欠下,S0904000244,上欠下
S090400024400100,上欠下,S0904000244,上欠下
S090400024400200,上欠下,S0904000244,上欠下
S0904000245,聖山公園入口,S0904000245,聖山公園入口
S090400024500100,聖山公園入口,S0904000245,聖山公園入口
S090400024500200,聖山公園入口,S0904000245,聖山公園入口
S0904000246,深津,S0904000246,深津
S090400024600100,深津,S0904000246,深津
S090400024600200,深津,S0904000246,深津
S0904000247,鹿沼工業団地東口,S0904000247,鹿沼工業団地東口
S090400024700100,鹿沼工業団地東口,S0904000247,鹿沼工業団地東口
S090400024700200,鹿沼工業団地東口,S0904000247,鹿沼工業団地東口
S0904000248,さつき町,S0904000248,さつき町
S090400024800100,さつき町,S0904000248,さつき町
S090400024800200,さつき町,S0904000248,さつき町
S0904000249,北原,S0904000249,北原
S090400024900100,北原,S0904000249,北原
S090400024900200,北原,S0904000249,北原
S0904000250,上石川十文字,S0904000250,上石川十文字
S090400025000100,上石川十文字,S0904000250,上石川十文字
S090400025000200,上石川十文字,S0904000250,上石川十文字
S0904000251,赤羽根交差点,S0904000251,赤羽根交差点
S090400025100100,赤羽根交差点,S0904000251,赤羽根交差点
S090400025100200,赤羽根交差点,S0904000251,赤羽根交差点
S090400025100101,赤羽根交差点,S0904000251,赤羽根交差点
S090400025100201,赤羽根交差点,S0904000251,赤羽根交差点
S0904000252,上石川中,S0904000252,上石川中
S090400025200100,上石川中,S0904000252,上石川中
S090400025200200,上石川中,S0904000252,上石川中
S090400025200101,上石川中,S0904000252,上石川中
S090400025200201,上石川中,S0904000252,上石川中
S0904000253,流通団地北,S0904000253,流通団地北
S090400025300100,流通団地北,S0904000253,流通団地北
S090400025300200,流通団地北,S0904000253,流通団地北
S090400025300101,流通団地北,S0904000253,流通団地北
S090400025300201,流通団地北,S0904000253,流通団地北
S0904000254,流通団地南,S0904000254,流通団地南
S090400025400100,流通団地南,S0904000254,流通団地南
S090400025400200,流通団地南,S0904000254,流通団地南
S090400025400101,流通団地南,S0904000254,流通団地南
S090400025400201,流通団地南,S0904000254,流通団地南
S0904000256,赤羽根,S0904000256,赤羽根
S090400025600100,赤羽根,S0904000256,赤羽根
S090400025600200,赤羽根,S0904000256,赤羽根
S0904000257,桜塚,S0904000257,桜塚
S090400025700100,桜塚,S0904000257,桜塚
S090400025700200,桜塚,S0904000257,桜塚
S0904000258,上野さつき屋前,S0904000258,上野さつき屋前
S090400025800100,上野さつき屋前,S0904000258,上野さつき屋前
S090400025800200,上野さつき屋前,S0904000258,上野さつき屋前
S0904000259,鹿沼ゴルフ場,S0904000259,鹿沼ゴルフ場
S090400025900100,鹿沼ゴルフ場,S0904000259,鹿沼ゴルフ場
S090400025900200,鹿沼ゴルフ場,S0904000259,鹿沼ゴルフ場
S0904000260,琴平神社前,S0904000260,琴平神社前
S090400026000100,琴平神社前,S0904000260,琴平神社前
S090400026000200,琴平神社前,S0904000260,琴平神社前
S0904000261,藤江,S0904000261,藤江
S090400026100100,藤江,S0904000261,藤江
S090400026100200,藤江,S0904000261,藤江
S0904000262,楡木橋,S0904000262,楡木橋
S090400026200100,楡木橋,S0904000262,楡木橋
S090400026200200,楡木橋,S0904000262,楡木橋
S0904000263,楡木小学校前,S0904000263,楡木小学校前
S090400026300100,楡木小学校前,S0904000263,楡木小学校前
S090400026300200,楡木小学校前,S0904000263,楡木小学校前
S0904000264,楡木駅入口,S0904000264,楡木駅入口
S090400026400100,楡木駅入口,S0904000264,楡木駅入口
S090400026400200,楡木駅入口,S0904000264,楡木駅入口
S0904000265,楡木下町,S0904000265,楡木下町
S090400026500100,楡木下町,S0904000265,楡木下町
S090400026500200,楡木下町,S0904000265,楡木下町
S0904000266,楡木車庫,S0904000266,楡木車庫
S090400026600100,楡木車庫,S0904000266,楡木車庫
S0904000267,今泉一丁目,S0904000267,今泉一丁目
S090400026700100,今泉一丁目,S0904000267,今泉一丁目
S090400026700200,今泉一丁目,S0904000267,今泉一丁目
S090400026700201,今泉一丁目,S0904000267,今泉一丁目
S0904000268,宮の橋北,S0904000268,宮の橋北
S090400026800100,宮の橋北,S0904000268,宮の橋北
S0904000269,花蔵院角,S0904000269,花蔵院角
S090400026900100,花蔵院角,S0904000269,花蔵院角
S090400026900200,花蔵院角,S0904000269,花蔵院角
S090400026900300,花蔵院角,S0904000269,花蔵院角
S090400026900400,花蔵院角,S0904000269,花蔵院角
S0904000270,白楊高校,S0904000270,白楊高校
S090400027000100,白楊高校,S0904000270,白楊高校
S090400027000200,白楊高校,S0904000270,白楊高校
S0904000271,今泉新田入口,S0904000271,今泉新田入口
S090400027100100,今泉新田入口,S0904000271,今泉新田入口
S090400027100200,今泉新田入口,S0904000271,今泉新田入口
S0904000272,泉が丘三丁目,S0904000272,泉が丘三丁目
S090400027200100,泉が丘三丁目,S0904000272,泉が丘三丁目
S090400027200200,泉が丘三丁目,S0904000272,泉が丘三丁目
S0904000273,泉が丘小学校前,S0904000273,泉が丘小学校前
S090400027300100,泉が丘小学校前,S0904000273,泉が丘小学校前
S090400027300200,泉が丘小学校前,S0904000273,泉が丘小学校前
S0904000274,越戸,S0904000274,越戸
S090400027400100,越戸,S0904000274,越戸
S090400027400200,越戸,S0904000274,越戸
S0904000275,越戸新田,S0904000275,越戸新田
S090400027500100,越戸新田,S0904000275,越戸新田
S090400027500200,越戸新田,S0904000275,越戸新田
S0904000276,藤井産業前,S0904000276,藤井産業前
S090400027600100,藤井産業前,S0904000276,藤井産業前
S090400027600200,藤井産業前,S0904000276,藤井産業前
S0904000277,上平出入口,S0904000277,上平出入口
S090400027700100,上平出入口,S0904000277,上平出入口
S090400027700200,上平出入口,S0904000277,上平出入口
S0904000278,平出公園,S0904000278,平出公園
S090400027800100,平出公園,S0904000278,平出公園
S090400027800200,平出公園,S0904000278,平出公園
S0904000279,滝団地前,S0904000279,滝団地前
S090400027900100,滝団地前,S0904000279,滝団地前
S090400027900200,滝団地前,S0904000279,滝団地前
S0904000280,雷電神社前,S0904000280,雷電神社前
S090400028000100,雷電神社前,S0904000280,雷電神社前
S090400028000200,雷電神社前,S0904000280,雷電神社前
S0904000281,平出駐在所前,S0904000281,平出駐在所前
S090400028100100,平出駐在所前,S0904000281,平出駐在所前
S090400028100200,平出駐在所前,S0904000281,平出駐在所前
S0904000282,平出橋,S0904000282,平出橋
S090400028200100,平出橋,S0904000282,平出橋
S090400028200200,平出橋,S0904000282,平出橋
S0904000283,県庁西門前（栃木）,S0904000283,県庁西門前（栃木）
S090400028300100,県庁西門前（栃木）,S0904000283,県庁西門前（栃木）
S090400028300200,県庁西門前（栃木）,S0904000283,県庁西門前（栃木）
S090400028300201,県庁西門前（栃木）,S0904000283,県庁西門前（栃木）
S0904000284,西塙田町,S0904000284,西塙田町
S090400028400100,西塙田町,S0904000284,西塙田町
S090400028400200,西塙田町,S0904000284,西塙田町
S090400028400201,西塙田町,S0904000284,西塙田町
S0904000285,昭和小学校前,S0904000285,昭和小学校前
S090400028500100,昭和小学校前,S0904000285,昭和小学校前
S090400028500200,昭和小学校前,S0904000285,昭和小学校前
S090400028500201,昭和小学校前,S0904000285,昭和小学校前
S0904000286,中央警察署前,S0904000286,中央警察署前
S090400028600100,中央警察署前,S0904000286,中央警察署前
S090400028600200,中央警察署前,S0904000286,中央警察署前
S090400028600201,中央警察署前,S0904000286,中央警察署前
S0904000287,競輪場前,S0904000287,競輪場前
S090400028700100,競輪場前,S0904000287,競輪場前
S090400028700200,競輪場前,S0904000287,競輪場前
S090400028700201,競輪場前,S0904000287,競輪場前
S0904000288,下戸祭二丁目,S0904000288,下戸祭二丁目
S090400028800100,下戸祭二丁目,S0904000288,下戸祭二丁目
S090400028800200,下戸祭二丁目,S0904000288,下戸祭二丁目
S090400028800300,下戸祭二丁目,S0904000288,下戸祭二丁目
S090400028800201,下戸祭二丁目,S0904000288,下戸祭二丁目
S0904000289,戸祭台一号,S0904000289,戸祭台一号
S090400028900100,戸祭台一号,S0904000289,戸祭台一号
S0904000290,戸祭台二号,S0904000290,戸祭台二号
S090400029000100,戸祭台二号,S0904000290,戸祭台二号
S0904000291,第二グリーンヒル南,S0904000291,第二グリーンヒル南
S090400029100100,第二グリーンヒル南,S0904000291,第二グリーンヒル南
S0904000292,第二グリーンヒル北,S0904000292,第二グリーンヒル北
S090400029200100,第二グリーンヒル北,S0904000292,第二グリーンヒル北
S0904000293,第一グリーンヒル,S0904000293,第一グリーンヒル
S090400029300100,第一グリーンヒル,S0904000293,第一グリーンヒル
S0904000294,青葉台,S0904000294,青葉台
S090400029400100,青葉台,S0904000294,青葉台
S0904000295,ゆたか団地北,S0904000295,ゆたか団地北
S090400029500100,ゆたか団地北,S0904000295,ゆたか団地北
S0904000296,ゆたか団地入口,S0904000296,ゆたか団地入口
S090400029600100,ゆたか団地入口,S0904000296,ゆたか団地入口
S0904000297,ゆたか団地,S0904000297,ゆたか団地
S090400029700100,ゆたか団地,S0904000297,ゆたか団地
S0904000298,戸祭台三号,S0904000298,戸祭台三号
S090400029800100,戸祭台三号,S0904000298,戸祭台三号
S0904000299,山崎街道入口,S0904000299,山崎街道入口
S090400029900100,山崎街道入口,S0904000299,山崎街道入口
S090400029900200,山崎街道入口,S0904000299,山崎街道入口
S0904000300,鎧川,S0904000300,鎧川
S090400030000100,鎧川,S0904000300,鎧川
S090400030000200,鎧川,S0904000300,鎧川
S0904000301,ＪＡ城山支所,S0904000301,ＪＡ城山支所
S090400030100100,ＪＡ城山支所,S0904000301,ＪＡ城山支所
S090400030100200,ＪＡ城山支所,S0904000301,ＪＡ城山支所
S0904000302,城山地区市民センター,S0904000302,城山地区市民センター
S090400030200100,城山地区市民センター,S0904000302,城山地区市民センター
S090400030200200,城山地区市民センター,S0904000302,城山地区市民センター
S0904000303,大谷橋,S0904000303,大谷橋
S090400030300100,大谷橋,S0904000303,大谷橋
S090400030300200,大谷橋,S0904000303,大谷橋
S090400030300300,大谷橋,S0904000303,大谷橋
S0904000304,漆久保,S0904000304,漆久保
S090400030400100,漆久保,S0904000304,漆久保
S090400030400200,漆久保,S0904000304,漆久保
S0904000305,城山中央小学校前,S0904000305,城山中央小学校前
S090400030500100,城山中央小学校前,S0904000305,城山中央小学校前
S090400030500200,城山中央小学校前,S0904000305,城山中央小学校前
S0904000306,新里街道口,S0904000306,新里街道口
S090400030600100,新里街道口,S0904000306,新里街道口
S090400030600200,新里街道口,S0904000306,新里街道口
S0904000307,田野町,S0904000307,田野町
S090400030700100,田野町,S0904000307,田野町
S090400030700200,田野町,S0904000307,田野町
S0904000308,森林公園入口,S0904000308,森林公園入口
S090400030800100,森林公園入口,S0904000308,森林公園入口
S090400030800200,森林公園入口,S0904000308,森林公園入口
S0904000309,栃窪寺前,S0904000309,栃窪寺前
S090400030900100,栃窪寺前,S0904000309,栃窪寺前
S090400030900200,栃窪寺前,S0904000309,栃窪寺前
S0904000310,栃窪堀の内,S0904000310,栃窪堀の内
S090400031000100,栃窪堀の内,S0904000310,栃窪堀の内
S090400031000200,栃窪堀の内,S0904000310,栃窪堀の内
S0904000311,木喰堂,S0904000311,木喰堂
S090400031100100,木喰堂,S0904000311,木喰堂
S090400031100200,木喰堂,S0904000311,木喰堂
S0904000312,栃窪十文字,S0904000312,栃窪十文字
S090400031200100,栃窪十文字,S0904000312,栃窪十文字
S090400031200200,栃窪十文字,S0904000312,栃窪十文字
S0904000313,西原,S0904000313,西原
S090400031300100,西原,S0904000313,西原
S090400031300200,西原,S0904000313,西原
S090400031300101,西原,S0904000313,西原
S090400031300201,西原,S0904000313,西原
S0904000314,ニューサンピア栃木,S0904000314,ニューサンピア栃木
S090400031400100,ニューサンピア栃木,S0904000314,ニューサンピア栃木
S0904000315,栃窪沼,S0904000315,栃窪沼
S090400031500100,栃窪沼,S0904000315,栃窪沼
S090400031500200,栃窪沼,S0904000315,栃窪沼
S0904000316,鹿沼東高校前,S0904000316,鹿沼東高校前
S090400031600100,鹿沼東高校前,S0904000316,鹿沼東高校前
S090400031600200,鹿沼東高校前,S0904000316,鹿沼東高校前
S0904000317,菊沢東小学校前,S0904000317,菊沢東小学校前
S090400031700100,菊沢東小学校前,S0904000317,菊沢東小学校前
S090400031700200,菊沢東小学校前,S0904000317,菊沢東小学校前
S0904000318,仁神堂町,S0904000318,仁神堂町
S090400031800100,仁神堂町,S0904000318,仁神堂町
S090400031800200,仁神堂町,S0904000318,仁神堂町
S0904000319,下武子町東,S0904000319,下武子町東
S090400031900100,下武子町東,S0904000319,下武子町東
S090400031900200,下武子町東,S0904000319,下武子町東
S0904000320,武子十文字,S0904000320,武子十文字
S090400032000100,武子十文字,S0904000320,武子十文字
S090400032000200,武子十文字,S0904000320,武子十文字
S0904000321,今泉五丁目,S0904000321,今泉五丁目
S090400032100100,今泉五丁目,S0904000321,今泉五丁目
S090400032100200,今泉五丁目,S0904000321,今泉五丁目
S0904000322,陽北中学校入口,S0904000322,陽北中学校入口
S090400032200100,陽北中学校入口,S0904000322,陽北中学校入口
S090400032200200,陽北中学校入口,S0904000322,陽北中学校入口
S0904000323,今泉八丁目,S0904000323,今泉八丁目
S090400032300100,今泉八丁目,S0904000323,今泉八丁目
S090400032300200,今泉八丁目,S0904000323,今泉八丁目
S0904000324,竹林十文字,S0904000324,竹林十文字
S090400032400100,竹林十文字,S0904000324,竹林十文字
S090400032400200,竹林十文字,S0904000324,竹林十文字
S090400032400300,竹林十文字,S0904000324,竹林十文字
S090400032400400,竹林十文字,S0904000324,竹林十文字
S0904000325,陽北中学校北口,S0904000325,陽北中学校北口
S090400032500100,陽北中学校北口,S0904000325,陽北中学校北口
S090400032500200,陽北中学校北口,S0904000325,陽北中学校北口
S0904000326,竹林西,S0904000326,竹林西
S090400032600100,竹林西,S0904000326,竹林西
S090400032600200,竹林西,S0904000326,竹林西
S0904000327,河内庁舎東口,S0904000327,河内庁舎東口
S090400032700100,河内庁舎東口,S0904000327,河内庁舎東口
S090400032700200,河内庁舎東口,S0904000327,河内庁舎東口
S090400032700101,河内庁舎東口,S0904000327,河内庁舎東口
S090400032700201,河内庁舎東口,S0904000327,河内庁舎東口
S0904000328,済生会病院,S0904000328,済生会病院
S090400032800100,済生会病院,S0904000328,済生会病院
S0904000329,豊郷地区市民センター入口,S0904000329,豊郷地区市民センター入口
S090400032900100,豊郷地区市民センター入口,S0904000329,豊郷地区市民センター入口
S090400032900200,豊郷地区市民センター入口,S0904000329,豊郷地区市民センター入口
S0904000330,宇都宮北高校,S0904000330,宇都宮北高校
S090400033000100,宇都宮北高校,S0904000330,宇都宮北高校
S090400033000200,宇都宮北高校,S0904000330,宇都宮北高校
S0904000331,緑ヶ丘入口,S0904000331,緑ヶ丘入口
S090400033100100,緑ヶ丘入口,S0904000331,緑ヶ丘入口
S090400033100200,緑ヶ丘入口,S0904000331,緑ヶ丘入口
S0904000332,豊郷台入口,S0904000332,豊郷台入口
S090400033200100,豊郷台入口,S0904000332,豊郷台入口
S090400033200200,豊郷台入口,S0904000332,豊郷台入口
S0904000333,豊郷台二丁目,S0904000333,豊郷台二丁目
S090400033300100,豊郷台二丁目,S0904000333,豊郷台二丁目
S090400033300200,豊郷台二丁目,S0904000333,豊郷台二丁目
S0904000334,帝京大学,S0904000334,帝京大学
S090400033400100,帝京大学,S0904000334,帝京大学
S0904000335,宇短大附属高校前,S0904000335,宇短大附属高校前
S090400033500100,宇短大附属高校前,S0904000335,宇短大附属高校前
S090400033500200,宇短大附属高校前,S0904000335,宇短大附属高校前
S0904000336,中央公園博物館前,S0904000336,中央公園博物館前
S090400033600100,中央公園博物館前,S0904000336,中央公園博物館前
S090400033600200,中央公園博物館前,S0904000336,中央公園博物館前
S0904000337,富士見小学校北口,S0904000337,富士見小学校北口
S090400033700100,富士見小学校北口,S0904000337,富士見小学校北口
S090400033700200,富士見小学校北口,S0904000337,富士見小学校北口
S0904000338,滝谷町,S0904000338,滝谷町
S090400033800100,滝谷町,S0904000338,滝谷町
S090400033800200,滝谷町,S0904000338,滝谷町
S0904000339,文化会館西口,S0904000339,文化会館西口
S090400033900100,文化会館西口,S0904000339,文化会館西口
S090400033900200,文化会館西口,S0904000339,文化会館西口
S0904000340,滝の原,S0904000340,滝の原
S090400034000100,滝の原,S0904000340,滝の原
S090400034000200,滝の原,S0904000340,滝の原
S090400034000300,滝の原,S0904000340,滝の原
S0904000342,大塚町,S0904000342,大塚町
S090400034200100,大塚町,S0904000342,大塚町
S090400034200200,大塚町,S0904000342,大塚町
S0904000343,姿川中学校入口,S0904000343,姿川中学校入口
S090400034300100,姿川中学校入口,S0904000343,姿川中学校入口
S090400034300200,姿川中学校入口,S0904000343,姿川中学校入口
S0904000344,八千代町,S0904000344,八千代町
S090400034400100,八千代町,S0904000344,八千代町
S090400034400200,八千代町,S0904000344,八千代町
S0904000345,江曽島駅入口,S0904000345,江曽島駅入口
S090400034500100,江曽島駅入口,S0904000345,江曽島駅入口
S090400034500200,江曽島駅入口,S0904000345,江曽島駅入口
S0904000346,東原町,S0904000346,東原町
S090400034600100,東原町,S0904000346,東原町
S090400034600200,東原町,S0904000346,東原町
S0904000347,西川田北部,S0904000347,西川田北部
S090400034700100,西川田北部,S0904000347,西川田北部
S090400034700200,西川田北部,S0904000347,西川田北部
S0904000348,軽車検場入口,S0904000348,軽車検場入口
S090400034800100,軽車検場入口,S0904000348,軽車検場入口
S090400034800200,軽車検場入口,S0904000348,軽車検場入口
S0904000349,西川田駅入口,S0904000349,西川田駅入口
S090400034900100,西川田駅入口,S0904000349,西川田駅入口
S090400034900200,西川田駅入口,S0904000349,西川田駅入口
S0904000350,西川田駅,S0904000350,西川田駅
S090400035000100,西川田駅,S0904000350,西川田駅
S0904000351,栃木街道分岐点,S0904000351,栃木街道分岐点
S090400035100100,栃木街道分岐点,S0904000351,栃木街道分岐点
S090400035100200,栃木街道分岐点,S0904000351,栃木街道分岐点
S0904000352,鶴田駅,S0904000352,鶴田駅
S090400035200100,鶴田駅,S0904000352,鶴田駅
S090400035200200,鶴田駅,S0904000352,鶴田駅
S0904000353,山王団地,S0904000353,山王団地
S090400035300100,山王団地,S0904000353,山王団地
S0904000354,林業センター前,S0904000354,林業センター前
S090400035400100,林業センター前,S0904000354,林業センター前
S090400035400200,林業センター前,S0904000354,林業センター前
S0904000355,古河入口,S0904000355,古河入口
S090400035500100,古河入口,S0904000355,古河入口
S090400035500200,古河入口,S0904000355,古河入口
S0904000356,篠井小学校前,S0904000356,篠井小学校前
S090400035600100,篠井小学校前,S0904000356,篠井小学校前
S090400035600200,篠井小学校前,S0904000356,篠井小学校前
S0904000357,篠井ニュータウン北,S0904000357,篠井ニュータウン北
S090400035700100,篠井ニュータウン北,S0904000357,篠井ニュータウン北
S090400035700200,篠井ニュータウン北,S0904000357,篠井ニュータウン北
S0904000358,篠井ニュータウン,S0904000358,篠井ニュータウン
S090400035800100,篠井ニュータウン,S0904000358,篠井ニュータウン
S090400035800200,篠井ニュータウン,S0904000358,篠井ニュータウン
S0904000359,篠井地区市民センター,S0904000359,篠井地区市民センター
S090400035900100,篠井地区市民センター,S0904000359,篠井地区市民センター
S090400035900200,篠井地区市民センター,S0904000359,篠井地区市民センター
S0904000360,下小池,S0904000360,下小池
S090400036000100,下小池,S0904000360,下小池
S090400036000200,下小池,S0904000360,下小池
S0904000361,東武日光駅前,S0904000361,東武日光駅前
S090400036100100,東武日光駅前,S0904000361,東武日光駅前
S090400036100200,東武日光駅前,S0904000361,東武日光駅前
S0904000362,石屋町,S0904000362,石屋町
S090400036200100,石屋町,S0904000362,石屋町
S090400036200200,石屋町,S0904000362,石屋町
S0904000366,神橋,S0904000366,神橋
S090400036600100,神橋,S0904000366,神橋
S090400036600200,神橋,S0904000366,神橋
S0904000367,日光東照宮,S0904000367,日光東照宮
S090400036700100,日光東照宮,S0904000367,日光東照宮
S0904000368,河内庁舎正門,S0904000368,河内庁舎正門
S090400036800100,河内庁舎正門,S0904000368,河内庁舎正門
S090400036800200,河内庁舎正門,S0904000368,河内庁舎正門
S0904000369,団地坂上,S0904000369,団地坂上
S090400036900100,団地坂上,S0904000369,団地坂上
S090400036900200,団地坂上,S0904000369,団地坂上
S0904000370,富士見が丘郵便局,S0904000370,富士見が丘郵便局
S090400037000100,富士見が丘郵便局,S0904000370,富士見が丘郵便局
S0904000371,団地北,S0904000371,団地北
S090400037100100,団地北,S0904000371,団地北
S0904000372,みふみ幼稚園前,S0904000372,みふみ幼稚園前
S090400037200100,みふみ幼稚園前,S0904000372,みふみ幼稚園前
S0904000373,団地中央,S0904000373,団地中央
S090400037300100,団地中央,S0904000373,団地中央
S090400037300200,団地中央,S0904000373,団地中央
S0904000374,団地南,S0904000374,団地南
S090400037400100,団地南,S0904000374,団地南
S090400037400200,団地南,S0904000374,団地南
S0904000375,団地南坂上,S0904000375,団地南坂上
S090400037500100,団地南坂上,S0904000375,団地南坂上
S090400037500200,団地南坂上,S0904000375,団地南坂上
S0904000376,富士見が丘団地,S0904000376,富士見が丘団地
S090400037600100,富士見が丘団地,S0904000376,富士見が丘団地
S090400037600200,富士見が丘団地,S0904000376,富士見が丘団地
S0904000377,栃木医療センター正門前,S0904000377,栃木医療センター正門前
S090400037700100,栃木医療センター正門前,S0904000377,栃木医療センター正門前
S090400037700200,栃木医療センター正門前,S0904000377,栃木医療センター正門前
S0904000378,若草町,S0904000378,若草町
S090400037800100,若草町,S0904000378,若草町
S090400037800200,若草町,S0904000378,若草町
S0904000379,戸祭,S0904000379,戸祭
S090400037900100,戸祭,S0904000379,戸祭
S090400037900200,戸祭,S0904000379,戸祭
S0904000381,宝木,S0904000381,宝木
S090400038100100,宝木,S0904000381,宝木
S090400038100200,宝木,S0904000381,宝木
S0904000382,警察学校前,S0904000382,警察学校前
S090400038200100,警察学校前,S0904000382,警察学校前
S090400038200200,警察学校前,S0904000382,警察学校前
S0904000383,市営住宅入口,S0904000383,市営住宅入口
S090400038300100,市営住宅入口,S0904000383,市営住宅入口
S090400038300200,市営住宅入口,S0904000383,市営住宅入口
S0904000384,若草４丁目,S0904000384,若草４丁目
S090400038400100,若草４丁目,S0904000384,若草４丁目
S090400038400200,若草４丁目,S0904000384,若草４丁目
S090400038400300,若草４丁目,S0904000384,若草４丁目
S090400038400400,若草４丁目,S0904000384,若草４丁目
S0904000385,西岡入口,S0904000385,西岡入口
S090400038500100,西岡入口,S0904000385,西岡入口
S090400038500200,西岡入口,S0904000385,西岡入口
S0904000386,宝木中学校入口,S0904000386,宝木中学校入口
S090400038600100,宝木中学校入口,S0904000386,宝木中学校入口
S090400038600200,宝木中学校入口,S0904000386,宝木中学校入口
S0904000387,柿の木幼稚園,S0904000387,柿の木幼稚園
S090400038700100,柿の木幼稚園,S0904000387,柿の木幼稚園
S090400038700200,柿の木幼稚園,S0904000387,柿の木幼稚園
S0904000388,宝木本町,S0904000388,宝木本町
S090400038800100,宝木本町,S0904000388,宝木本町
S090400038800200,宝木本町,S0904000388,宝木本町
S0904000389,宝木本町上,S0904000389,宝木本町上
S090400038900100,宝木本町上,S0904000389,宝木本町上
S090400038900200,宝木本町上,S0904000389,宝木本町上
S0904000390,仁良塚神社前,S0904000390,仁良塚神社前
S090400039000100,仁良塚神社前,S0904000390,仁良塚神社前
S090400039000200,仁良塚神社前,S0904000390,仁良塚神社前
S0904000391,仁良塚下,S0904000391,仁良塚下
S090400039100100,仁良塚下,S0904000391,仁良塚下
S090400039100200,仁良塚下,S0904000391,仁良塚下
S0904000392,仁良塚,S0904000392,仁良塚
S090400039200100,仁良塚,S0904000392,仁良塚
S090400039200200,仁良塚,S0904000392,仁良塚
S0904000393,東大堀,S0904000393,東大堀
S090400039300100,東大堀,S0904000393,東大堀
S090400039300200,東大堀,S0904000393,東大堀
S0904000394,西大堀,S0904000394,西大堀
S090400039400100,西大堀,S0904000394,西大堀
S090400039400200,西大堀,S0904000394,西大堀
S0904000395,藤本,S0904000395,藤本
S090400039500100,藤本,S0904000395,藤本
S090400039500200,藤本,S0904000395,藤本
S0904000396,新里町,S0904000396,新里町
S090400039600100,新里町,S0904000396,新里町
S090400039600200,新里町,S0904000396,新里町
S0904000397,温泉館前,S0904000397,温泉館前
S090400039700100,温泉館前,S0904000397,温泉館前
S090400039700200,温泉館前,S0904000397,温泉館前
S0904000398,正面ゲート前,S0904000398,正面ゲート前
S090400039800100,正面ゲート前,S0904000398,正面ゲート前
S090400039800200,正面ゲート前,S0904000398,正面ゲート前
S0904000399,ろまんちっく村,S0904000399,ろまんちっく村
S090400039900100,ろまんちっく村,S0904000399,ろまんちっく村
S0904000400,石井街道口,S0904000400,石井街道口
S090400040000100,石井街道口,S0904000400,石井街道口
S090400040000200,石井街道口,S0904000400,石井街道口
S0904000401,宿郷中,S0904000401,宿郷中
S090400040100100,宿郷中,S0904000401,宿郷中
S090400040100200,宿郷中,S0904000401,宿郷中
S0904000402,城東小前,S0904000402,城東小前
S090400040200100,城東小前,S0904000402,城東小前
S090400040200200,城東小前,S0904000402,城東小前
S0904000403,簗瀬東,S0904000403,簗瀬東
S090400040300100,簗瀬東,S0904000403,簗瀬東
S090400040300200,簗瀬東,S0904000403,簗瀬東
S0904000404,簗瀬金堀,S0904000404,簗瀬金堀
S090400040400100,簗瀬金堀,S0904000404,簗瀬金堀
S090400040400200,簗瀬金堀,S0904000404,簗瀬金堀
S090400040400300,簗瀬金堀,S0904000404,簗瀬金堀
S090400040400400,簗瀬金堀,S0904000404,簗瀬金堀
S0904000405,下栗団地,S0904000405,下栗団地
S090400040500100,下栗団地,S0904000405,下栗団地
S090400040500200,下栗団地,S0904000405,下栗団地
S0904000406,平松自転車屋前,S0904000406,平松自転車屋前
S090400040600100,平松自転車屋前,S0904000406,平松自転車屋前
S090400040600200,平松自転車屋前,S0904000406,平松自転車屋前
S0904000407,平松宿,S0904000407,平松宿
S090400040700100,平松宿,S0904000407,平松宿
S090400040700200,平松宿,S0904000407,平松宿
S0904000408,平松神社前,S0904000408,平松神社前
S090400040800100,平松神社前,S0904000408,平松神社前
S090400040800200,平松神社前,S0904000408,平松神社前
S0904000409,ミツトヨ前,S0904000409,ミツトヨ前
S090400040900100,ミツトヨ前,S0904000409,ミツトヨ前
S090400040900200,ミツトヨ前,S0904000409,ミツトヨ前
S0904000410,下栗,S0904000410,下栗
S090400041000100,下栗,S0904000410,下栗
S090400041000200,下栗,S0904000410,下栗
S0904000411,東高校前,S0904000411,東高校前
S090400041100100,東高校前,S0904000411,東高校前
S090400041100200,東高校前,S0904000411,東高校前
S0904000412,横川中学校入口,S0904000412,横川中学校入口
S090400041200100,横川中学校入口,S0904000412,横川中学校入口
S090400041200200,横川中学校入口,S0904000412,横川中学校入口
S0904000413,さる山団地入口,S0904000413,さる山団地入口
S090400041300100,さる山団地入口,S0904000413,さる山団地入口
S090400041300200,さる山団地入口,S0904000413,さる山団地入口
S0904000414,さる山団地,S0904000414,さる山団地
S090400041400100,さる山団地,S0904000414,さる山団地
S0904000415,瑞穂三丁目,S0904000415,瑞穂三丁目
S090400041500100,瑞穂三丁目,S0904000415,瑞穂三丁目
S090400041500101,瑞穂三丁目,S0904000415,瑞穂三丁目
S0904000416,瑞穂二丁目,S0904000416,瑞穂二丁目
S090400041600100,瑞穂二丁目,S0904000416,瑞穂二丁目
S090400041600101,瑞穂二丁目,S0904000416,瑞穂二丁目
S0904000417,瑞穂一丁目,S0904000417,瑞穂一丁目
S090400041700100,瑞穂一丁目,S0904000417,瑞穂一丁目
S090400041700101,瑞穂一丁目,S0904000417,瑞穂一丁目
S0904000418,瑞穂野団地,S0904000418,瑞穂野団地
S090400041800100,瑞穂野団地,S0904000418,瑞穂野団地
S090400041800200,瑞穂野団地,S0904000418,瑞穂野団地
S090400041800300,瑞穂野団地,S0904000418,瑞穂野団地
S0904000419,一里,S0904000419,一里
S090400041900100,一里,S0904000419,一里
S090400041900200,一里,S0904000419,一里
S0904000420,横川西小学校前,S0904000420,横川西小学校前
S090400042000100,横川西小学校前,S0904000420,横川西小学校前
S090400042000200,横川西小学校前,S0904000420,横川西小学校前
S0904000421,台新田神社前,S0904000421,台新田神社前
S090400042100100,台新田神社前,S0904000421,台新田神社前
S090400042100200,台新田神社前,S0904000421,台新田神社前
S0904000422,寿鶴薬師堂,S0904000422,寿鶴薬師堂
S090400042200100,寿鶴薬師堂,S0904000422,寿鶴薬師堂
S090400042200200,寿鶴薬師堂,S0904000422,寿鶴薬師堂
S0904000423,航空学校前,S0904000423,航空学校前
S090400042300100,航空学校前,S0904000423,航空学校前
S090400042300200,航空学校前,S0904000423,航空学校前
S0904000424,東横田入口,S0904000424,東横田入口
S090400042400100,東横田入口,S0904000424,東横田入口
S090400042400200,東横田入口,S0904000424,東横田入口
S0904000425,宮の内交差点,S0904000425,宮の内交差点
S090400042500100,宮の内交差点,S0904000425,宮の内交差点
S090400042500200,宮の内交差点,S0904000425,宮の内交差点
S0904000426,宮の内,S0904000426,宮の内
S090400042600100,宮の内,S0904000426,宮の内
S090400042600200,宮の内,S0904000426,宮の内
S0904000427,上御田入口,S0904000427,上御田入口
S090400042700100,上御田入口,S0904000427,上御田入口
S090400042700200,上御田入口,S0904000427,上御田入口
S0904000428,雀宮中央小学校入口,S0904000428,雀宮中央小学校入口
S090400042800100,雀宮中央小学校入口,S0904000428,雀宮中央小学校入口
S090400042800200,雀宮中央小学校入口,S0904000428,雀宮中央小学校入口
S0904000429,雀宮地区市民センター,S0904000429,雀宮地区市民センター
S090400042900100,雀宮地区市民センター,S0904000429,雀宮地区市民センター
S090400042900200,雀宮地区市民センター,S0904000429,雀宮地区市民センター
S0904000430,日の出通り,S0904000430,日の出通り
S090400043000100,日の出通り,S0904000430,日の出通り
S090400043000200,日の出通り,S0904000430,日の出通り
S0904000431,ジェイコーうつのみや病院,S0904000431,ジェイコーうつのみや病院
S090400043100100,ジェイコーうつのみや病院,S0904000431,ジェイコーうつのみや病院
S090400043100200,ジェイコーうつのみや病院,S0904000431,ジェイコーうつのみや病院
S0904000432,雀宮陸上自衛隊前,S0904000432,雀宮陸上自衛隊前
S090400043200100,雀宮陸上自衛隊前,S0904000432,雀宮陸上自衛隊前
S090400043200200,雀宮陸上自衛隊前,S0904000432,雀宮陸上自衛隊前
S0904000433,清住町,S0904000433,清住町
S090400043300100,清住町,S0904000433,清住町
S090400043300200,清住町,S0904000433,清住町
S0904000434,宇大附属学校園入口,S0904000434,宇大附属学校園入口
S090400043400100,宇大附属学校園入口,S0904000434,宇大附属学校園入口
S090400043400200,宇大附属学校園入口,S0904000434,宇大附属学校園入口
S0904000435,星が丘中学校入口,S0904000435,星が丘中学校入口
S090400043500100,星が丘中学校入口,S0904000435,星が丘中学校入口
S090400043500200,星が丘中学校入口,S0904000435,星が丘中学校入口
S0904000436,松原町,S0904000436,松原町
S090400043600100,松原町,S0904000436,松原町
S090400043600200,松原町,S0904000436,松原町
S0904000437,松原交差点,S0904000437,松原交差点
S090400043700100,松原交差点,S0904000437,松原交差点
S090400043700200,松原交差点,S0904000437,松原交差点
S090400043700300,松原交差点,S0904000437,松原交差点
S090400043700400,松原交差点,S0904000437,松原交差点
S0904000438,細谷車庫,S0904000438,細谷車庫
S090400043800100,細谷車庫,S0904000438,細谷車庫
S0904000439,西の宮通り,S0904000439,西の宮通り
S090400043900100,西の宮通り,S0904000439,西の宮通り
S090400043900200,西の宮通り,S0904000439,西の宮通り
S0904000440,駒生運動公園,S0904000440,駒生運動公園
S090400044000100,駒生運動公園,S0904000440,駒生運動公園
S090400044000200,駒生運動公園,S0904000440,駒生運動公園
S0904000441,明保小東口,S0904000441,明保小東口
S090400044100100,明保小東口,S0904000441,明保小東口
S090400044100200,明保小東口,S0904000441,明保小東口
S0904000442,西の宮団地入口,S0904000442,西の宮団地入口
S090400044200100,西の宮団地入口,S0904000442,西の宮団地入口
S090400044200200,西の宮団地入口,S0904000442,西の宮団地入口
S0904000443,西の宮団地中央,S0904000443,西の宮団地中央
S090400044300100,西の宮団地中央,S0904000443,西の宮団地中央
S090400044300200,西の宮団地中央,S0904000443,西の宮団地中央
S0904000444,西の宮自治会館,S0904000444,西の宮自治会館
S090400044400100,西の宮自治会館,S0904000444,西の宮自治会館
S0904000445,西の宮団地北,S0904000445,西の宮団地北
S090400044500100,西の宮団地北,S0904000445,西の宮団地北
S0904000446,西の宮団地,S0904000446,西の宮団地
S090400044600100,西の宮団地,S0904000446,西の宮団地
S0904000447,福祉プラザ,S0904000447,福祉プラザ
S090400044700100,福祉プラザ,S0904000447,福祉プラザ
S090400044700200,福祉プラザ,S0904000447,福祉プラザ
S0904000448,公民館前（宇都宮市）,S0904000448,公民館前（宇都宮市）
S090400044800100,公民館前（宇都宮市）,S0904000448,公民館前（宇都宮市）
S090400044800200,公民館前（宇都宮市）,S0904000448,公民館前（宇都宮市）
S0904000449,細谷小学校前,S0904000449,細谷小学校前
S090400044900100,細谷小学校前,S0904000449,細谷小学校前
S090400044900200,細谷小学校前,S0904000449,細谷小学校前
S0904000450,中道,S0904000450,中道
S090400045000100,中道,S0904000450,中道
S090400045000200,中道,S0904000450,中道
S0904000451,県営細谷住宅前,S0904000451,県営細谷住宅前
S090400045100100,県営細谷住宅前,S0904000451,県営細谷住宅前
S090400045100200,県営細谷住宅前,S0904000451,県営細谷住宅前
S0904000452,宝木団地,S0904000452,宝木団地
S090400045200100,宝木団地,S0904000452,宝木団地
S090400045200200,宝木団地,S0904000452,宝木団地
S0904000453,茂原観音入口,S0904000453,茂原観音入口
S090400045300100,茂原観音入口,S0904000453,茂原観音入口
S090400045300200,茂原観音入口,S0904000453,茂原観音入口
S0904000454,上古山入口,S0904000454,上古山入口
S090400045400100,上古山入口,S0904000454,上古山入口
S090400045400200,上古山入口,S0904000454,上古山入口
S0904000455,石橋北小入口,S0904000455,石橋北小入口
S090400045500100,石橋北小入口,S0904000455,石橋北小入口
S090400045500200,石橋北小入口,S0904000455,石橋北小入口
S0904000456,鞘堂,S0904000456,鞘堂
S090400045600100,鞘堂,S0904000456,鞘堂
S090400045600200,鞘堂,S0904000456,鞘堂
S0904000457,下野警察署,S0904000457,下野警察署
S090400045700100,下野警察署,S0904000457,下野警察署
S090400045700200,下野警察署,S0904000457,下野警察署
S0904000458,若林入口,S0904000458,若林入口
S090400045800100,若林入口,S0904000458,若林入口
S090400045800200,若林入口,S0904000458,若林入口
S0904000459,通古山,S0904000459,通古山
S090400045900100,通古山,S0904000459,通古山
S090400045900200,通古山,S0904000459,通古山
S0904000460,文教,S0904000460,文教
S090400046000100,文教,S0904000460,文教
S090400046000200,文教,S0904000460,文教
S0904000461,文教通り下古山,S0904000461,文教通り下古山
S090400046100100,文教通り下古山,S0904000461,文教通り下古山
S090400046100200,文教通り下古山,S0904000461,文教通り下古山
S0904000462,石橋総合病院入口,S0904000462,石橋総合病院入口
S090400046200100,石橋総合病院入口,S0904000462,石橋総合病院入口
S090400046200200,石橋総合病院入口,S0904000462,石橋総合病院入口
S0904000463,石橋高校,S0904000463,石橋高校
S090400046300100,石橋高校,S0904000463,石橋高校
S090400046300200,石橋高校,S0904000463,石橋高校
S0904000465,石橋待合所,S0904000465,石橋待合所
S090400046500100,石橋待合所,S0904000465,石橋待合所
S090400046500200,石橋待合所,S0904000465,石橋待合所
S0904000466,石橋駅,S0904000466,石橋駅
S090400046600100,石橋駅,S0904000466,石橋駅
S090400046600200,石橋駅,S0904000466,石橋駅
S0904000468,篠井学道,S0904000468,篠井学道
S090400046800100,篠井学道,S0904000468,篠井学道
S090400046800200,篠井学道,S0904000468,篠井学道
S0904000469,中篠井寺前,S0904000469,中篠井寺前
S090400046900100,中篠井寺前,S0904000469,中篠井寺前
S090400046900200,中篠井寺前,S0904000469,中篠井寺前
S0904000470,上篠井雑貨屋前,S0904000470,上篠井雑貨屋前
S090400047000100,上篠井雑貨屋前,S0904000470,上篠井雑貨屋前
S090400047000200,上篠井雑貨屋前,S0904000470,上篠井雑貨屋前
S0904000471,飯山入口,S0904000471,飯山入口
S090400047100100,飯山入口,S0904000471,飯山入口
S090400047100200,飯山入口,S0904000471,飯山入口
S0904000472,沓掛桜の木,S0904000472,沓掛桜の木
S090400047200100,沓掛桜の木,S0904000472,沓掛桜の木
S090400047200200,沓掛桜の木,S0904000472,沓掛桜の木
S0904000473,沓掛十文字,S0904000473,沓掛十文字
S090400047300100,沓掛十文字,S0904000473,沓掛十文字
S090400047300200,沓掛十文字,S0904000473,沓掛十文字
S0904000474,塩野室局前,S0904000474,塩野室局前
S090400047400100,塩野室局前,S0904000474,塩野室局前
S090400047400200,塩野室局前,S0904000474,塩野室局前
S0904000475,塩野室,S0904000475,塩野室
S090400047500100,塩野室,S0904000475,塩野室
S090400047500200,塩野室,S0904000475,塩野室
S0904000476,魚屋前,S0904000476,魚屋前
S090400047600100,魚屋前,S0904000476,魚屋前
S090400047600200,魚屋前,S0904000476,魚屋前
S0904000477,北塩野室,S0904000477,北塩野室
S090400047700100,北塩野室,S0904000477,北塩野室
S090400047700200,北塩野室,S0904000477,北塩野室
S0904000478,芝河原,S0904000478,芝河原
S090400047800100,芝河原,S0904000478,芝河原
S090400047800200,芝河原,S0904000478,芝河原
S0904000479,観音橋,S0904000479,観音橋
S090400047900100,観音橋,S0904000479,観音橋
S090400047900200,観音橋,S0904000479,観音橋
S0904000480,佐貫観音前,S0904000480,佐貫観音前
S090400048000100,佐貫観音前,S0904000480,佐貫観音前
S090400048000200,佐貫観音前,S0904000480,佐貫観音前
S0904000481,佐貫,S0904000481,佐貫
S090400048100100,佐貫,S0904000481,佐貫
S090400048100200,佐貫,S0904000481,佐貫
S0904000482,上沢,S0904000482,上沢
S090400048200100,上沢,S0904000482,上沢
S090400048200200,上沢,S0904000482,上沢
S0904000483,沼倉,S0904000483,沼倉
S090400048300100,沼倉,S0904000483,沼倉
S090400048300200,沼倉,S0904000483,沼倉
S0904000484,川村入口,S0904000484,川村入口
S090400048400100,川村入口,S0904000484,川村入口
S090400048400200,川村入口,S0904000484,川村入口
S0904000485,佐貫入口,S0904000485,佐貫入口
S090400048500100,佐貫入口,S0904000485,佐貫入口
S090400048500200,佐貫入口,S0904000485,佐貫入口
S0904000486,船生公民館,S0904000486,船生公民館
S090400048600100,船生公民館,S0904000486,船生公民館
S090400048600200,船生公民館,S0904000486,船生公民館
S0904000487,船生,S0904000487,船生
S090400048700100,船生,S0904000487,船生
S0904000488,豊郷台ショッピングセンター,S0904000488,豊郷台ショッピングセンター
S090400048800100,豊郷台ショッピングセンター,S0904000488,豊郷台ショッピングセンター
S090400048800200,豊郷台ショッピングセンター,S0904000488,豊郷台ショッピングセンター
S0904000489,豊郷台中央公園前,S0904000489,豊郷台中央公園前
S090400048900100,豊郷台中央公園前,S0904000489,豊郷台中央公園前
S090400048900200,豊郷台中央公園前,S0904000489,豊郷台中央公園前
S0904000490,瓦谷町東,S0904000490,瓦谷町東
S090400049000100,瓦谷町東,S0904000490,瓦谷町東
S090400049000200,瓦谷町東,S0904000490,瓦谷町東
S0904000491,ニュー富士見団地入口,S0904000491,ニュー富士見団地入口
S090400049100100,ニュー富士見団地入口,S0904000491,ニュー富士見団地入口
S090400049100200,ニュー富士見団地入口,S0904000491,ニュー富士見団地入口
S0904000492,ニュー富士見中,S0904000492,ニュー富士見中
S090400049200100,ニュー富士見中,S0904000492,ニュー富士見中
S090400049200200,ニュー富士見中,S0904000492,ニュー富士見中
S0904000493,ニュー富士見上,S0904000493,ニュー富士見上
S090400049300100,ニュー富士見上,S0904000493,ニュー富士見上
S090400049300200,ニュー富士見上,S0904000493,ニュー富士見上
S0904000494,ニュー富士見,S0904000494,ニュー富士見
S090400049400100,ニュー富士見,S0904000494,ニュー富士見
S090400049400200,ニュー富士見,S0904000494,ニュー富士見
S0904000495,豊郷台三丁目,S0904000495,豊郷台三丁目
S090400049500100,豊郷台三丁目,S0904000495,豊郷台三丁目
S090400049500200,豊郷台三丁目,S0904000495,豊郷台三丁目
S0904000496,宇都宮美術館,S0904000496,宇都宮美術館
S090400049600100,宇都宮美術館,S0904000496,宇都宮美術館
S0904000497,砥上町,S0904000497,砥上町
S090400049700100,砥上町,S0904000497,砥上町
S090400049700200,砥上町,S0904000497,砥上町
S0904000498,砥上団地,S0904000498,砥上団地
S090400049800100,砥上団地,S0904000498,砥上団地
S090400049800200,砥上団地,S0904000498,砥上団地
S0904000499,砥上車庫,S0904000499,砥上車庫
S090400049900100,砥上車庫,S0904000499,砥上車庫
S0904000500,陽西中学校前,S0904000500,陽西中学校前
S090400050000100,陽西中学校前,S0904000500,陽西中学校前
S090400050000200,陽西中学校前,S0904000500,陽西中学校前
S0904000501,下原,S0904000501,下原
S090400050100100,下原,S0904000501,下原
S090400050100200,下原,S0904000501,下原
S0904000502,東宝木,S0904000502,東宝木
S090400050200100,東宝木,S0904000502,東宝木
S090400050200200,東宝木,S0904000502,東宝木
S0904000503,桜小学校前,S0904000503,桜小学校前
S090400050300100,桜小学校前,S0904000503,桜小学校前
S090400050300200,桜小学校前,S0904000503,桜小学校前
S0904000504,西大寛町,S0904000504,西大寛町
S090400050400100,西大寛町,S0904000504,西大寛町
S090400050400200,西大寛町,S0904000504,西大寛町
S0904000505,陽西通り北,S0904000505,陽西通り北
S090400050500100,陽西通り北,S0904000505,陽西通り北
S090400050500200,陽西通り北,S0904000505,陽西通り北
S0904000506,宇女高西口,S0904000506,宇女高西口
S090400050600100,宇女高西口,S0904000506,宇女高西口
S090400050600200,宇女高西口,S0904000506,宇女高西口
S0904000507,陽西通り十文字,S0904000507,陽西通り十文字
S090400050700100,陽西通り十文字,S0904000507,陽西通り十文字
S090400050700200,陽西通り十文字,S0904000507,陽西通り十文字
S0904000508,陽西通り南,S0904000508,陽西通り南
S090400050800100,陽西通り南,S0904000508,陽西通り南
S090400050800200,陽西通り南,S0904000508,陽西通り南
S0904000509,京町西,S0904000509,京町西
S090400050900100,京町西,S0904000509,京町西
S090400050900200,京町西,S0904000509,京町西
S090400050900300,京町西,S0904000509,京町西
S0904000510,ハローワーク,S0904000510,ハローワーク
S090400051000100,ハローワーク,S0904000510,ハローワーク
S090400051000200,ハローワーク,S0904000510,ハローワーク
S0904000512,菊水町,S0904000512,菊水町
S090400051200100,菊水町,S0904000512,菊水町
S090400051200200,菊水町,S0904000512,菊水町
S0904000513,南宇都宮,S0904000513,南宇都宮
S090400051300100,南宇都宮,S0904000513,南宇都宮
S090400051300200,南宇都宮,S0904000513,南宇都宮
S0904000514,吉野二丁目,S0904000514,吉野二丁目
S090400051400100,吉野二丁目,S0904000514,吉野二丁目
S090400051400200,吉野二丁目,S0904000514,吉野二丁目
S0904000515,弥生町,S0904000515,弥生町
S090400051500100,弥生町,S0904000515,弥生町
S090400051500200,弥生町,S0904000515,弥生町
S0904000516,切通し,S0904000516,切通し
S090400051600100,切通し,S0904000516,切通し
S090400051600200,切通し,S0904000516,切通し
S0904000517,大谷観音前,S0904000517,大谷観音前
S090400051700100,大谷観音前,S0904000517,大谷観音前
S090400051700200,大谷観音前,S0904000517,大谷観音前
S0904000518,大谷景観公園,S0904000518,大谷景観公園
S090400051800100,大谷景観公園,S0904000518,大谷景観公園
S090400051800200,大谷景観公園,S0904000518,大谷景観公園
S0904000519,資料館入口,S0904000519,資料館入口
S090400051900100,資料館入口,S0904000519,資料館入口
S090400051900200,資料館入口,S0904000519,資料館入口
S0904000520,立岩入口,S0904000520,立岩入口
S090400052000100,立岩入口,S0904000520,立岩入口
S090400052000200,立岩入口,S0904000520,立岩入口
S0904000521,申田,S0904000521,申田
S090400052100100,申田,S0904000521,申田
S090400052100200,申田,S0904000521,申田
S0904000522,立岩,S0904000522,立岩
S090400052200100,立岩,S0904000522,立岩
S0904000523,あけぼの公園,S0904000523,あけぼの公園
S090400052300100,あけぼの公園,S0904000523,あけぼの公園
S090400052300200,あけぼの公園,S0904000523,あけぼの公園
S0904000524,競馬場北口,S0904000524,競馬場北口
S090400052400100,競馬場北口,S0904000524,競馬場北口
S090400052400200,競馬場北口,S0904000524,競馬場北口
S0904000525,和尚塚,S0904000525,和尚塚
S090400052500100,和尚塚,S0904000525,和尚塚
S090400052500200,和尚塚,S0904000525,和尚塚
S0904000526,戸祭小学校入口,S0904000526,戸祭小学校入口
S090400052600100,戸祭小学校入口,S0904000526,戸祭小学校入口
S090400052600200,戸祭小学校入口,S0904000526,戸祭小学校入口
S0904000527,宇都宮医師会館前,S0904000527,宇都宮医師会館前
S090400052700100,宇都宮医師会館前,S0904000527,宇都宮医師会館前
S090400052700200,宇都宮医師会館前,S0904000527,宇都宮医師会館前
S0904000528,戸祭四丁目,S0904000528,戸祭四丁目
S090400052800100,戸祭四丁目,S0904000528,戸祭四丁目
S090400052800200,戸祭四丁目,S0904000528,戸祭四丁目
S0904000529,妙正寺前,S0904000529,妙正寺前
S090400052900100,妙正寺前,S0904000529,妙正寺前
S090400052900200,妙正寺前,S0904000529,妙正寺前
S0904000530,宇都宮記念病院前,S0904000530,宇都宮記念病院前
S090400053000100,宇都宮記念病院前,S0904000530,宇都宮記念病院前
S090400053000200,宇都宮記念病院前,S0904000530,宇都宮記念病院前
S0904000531,国際情報ビジネス専門学校,S0904000531,国際情報ビジネス専門学校
S090400053100100,国際情報ビジネス専門学校,S0904000531,国際情報ビジネス専門学校
S090400053100200,国際情報ビジネス専門学校,S0904000531,国際情報ビジネス専門学校
S0904000532,宇都宮二荒山神社下,S0904000532,宇都宮二荒山神社下
S090400053200100,宇都宮二荒山神社下,S0904000532,宇都宮二荒山神社下
S090400053200200,宇都宮二荒山神社下,S0904000532,宇都宮二荒山神社下
S0904000533,慈光寺前,S0904000533,慈光寺前
S090400053300100,慈光寺前,S0904000533,慈光寺前
S090400053300200,慈光寺前,S0904000533,慈光寺前
S0904000534,県庁東（栃木）,S0904000534,県庁東（栃木）
S090400053400100,県庁東（栃木）,S0904000534,県庁東（栃木）
S090400053400200,県庁東（栃木）,S0904000534,県庁東（栃木）
S0904000535,県総合文化センター前,S0904000535,県総合文化センター前
S090400053500100,県総合文化センター前,S0904000535,県総合文化センター前
S090400053500200,県総合文化センター前,S0904000535,県総合文化センター前
S0904000536,オリオン通り入口,S0904000536,オリオン通り入口
S090400053600100,オリオン通り入口,S0904000536,オリオン通り入口
S0904000537,総合福祉センター前,S0904000537,総合福祉センター前
S090400053700100,総合福祉センター前,S0904000537,総合福祉センター前
S090400053700200,総合福祉センター前,S0904000537,総合福祉センター前
S0904000538,松が峰教会前,S0904000538,松が峰教会前
S090400053800100,松が峰教会前,S0904000538,松が峰教会前
S090400053800200,松が峰教会前,S0904000538,松が峰教会前
S0904000539,市役所庁舎前（宇都宮市）,S0904000539,市役所庁舎前（宇都宮市）
S090400053900100,市役所庁舎前（宇都宮市）,S0904000539,市役所庁舎前（宇都宮市）
S0904000540,宇都宮市役所,S0904000540,宇都宮市役所
S090400054000100,宇都宮市役所,S0904000540,宇都宮市役所
S090400054000200,宇都宮市役所,S0904000540,宇都宮市役所
S0904000541,宇都宮城址公園入口,S0904000541,宇都宮城址公園入口
S090400054100100,宇都宮城址公園入口,S0904000541,宇都宮城址公園入口
S090400054100200,宇都宮城址公園入口,S0904000541,宇都宮城址公園入口
S0904000542,中央郵便局前,S0904000542,中央郵便局前
S090400054200100,中央郵便局前,S0904000542,中央郵便局前
S090400054200200,中央郵便局前,S0904000542,中央郵便局前
S0904000543,みはし通り,S0904000543,みはし通り
S090400054300100,みはし通り,S0904000543,みはし通り
S0904000544,日野町通り,S0904000544,日野町通り
S090400054400100,日野町通り,S0904000544,日野町通り
S0904000545,二番町,S0904000545,二番町
S090400054500100,二番町,S0904000545,二番町
S090400054500200,二番町,S0904000545,二番町
S0904000546,一番町,S0904000546,一番町
S090400054600100,一番町,S0904000546,一番町
S090400054600200,一番町,S0904000546,一番町
S0904000547,駅前通り２丁目,S0904000547,駅前通り２丁目
S090400054700100,駅前通り２丁目,S0904000547,駅前通り２丁目
S090400054700200,駅前通り２丁目,S0904000547,駅前通り２丁目
S0904000548,栃木県庁舎前,S0904000548,栃木県庁舎前
S090400054800100,栃木県庁舎前,S0904000548,栃木県庁舎前
S0904000549,簗瀬小学校,S0904000549,簗瀬小学校
S090400054900100,簗瀬小学校,S0904000549,簗瀬小学校
S0904000550,天神一丁目,S0904000550,天神一丁目
S090400055000100,天神一丁目,S0904000550,天神一丁目
S0904000551,旭中学校,S0904000551,旭中学校
S090400055100100,旭中学校,S0904000551,旭中学校
S0904000552,宇都宮城址公園東,S0904000552,宇都宮城址公園東
S090400055200100,宇都宮城址公園東,S0904000552,宇都宮城址公園東
S0904000553,本丸西通り,S0904000553,本丸西通り
S090400055300100,本丸西通り,S0904000553,本丸西通り
S0904000555,松が峰二丁目,S0904000555,松が峰二丁目
S090400055500100,松が峰二丁目,S0904000555,松が峰二丁目
S0904000569,工学部前,S0904000569,工学部前
S090400056900100,工学部前,S0904000569,工学部前
S090400056900200,工学部前,S0904000569,工学部前
S090400056900300,工学部前,S0904000569,工学部前
S090400056900400,工学部前,S0904000569,工学部前
S090400056900301,工学部前,S0904000569,工学部前
S090400056900401,工学部前,S0904000569,工学部前
S0904000570,こえご,S0904000570,こえご
S090400057000100,こえご,S0904000570,こえご
S090400057000200,こえご,S0904000570,こえご
S0904000571,峰小前,S0904000571,峰小前
S090400057100100,峰小前,S0904000571,峰小前
S090400057100200,峰小前,S0904000571,峰小前
S0904000572,宇大東,S0904000572,宇大東
S090400057200100,宇大東,S0904000572,宇大東
S090400057200200,宇大東,S0904000572,宇大東
S0904000573,宇都宮大学前,S0904000573,宇都宮大学前
S090400057300100,宇都宮大学前,S0904000573,宇都宮大学前
S090400057300200,宇都宮大学前,S0904000573,宇都宮大学前
S090400057300101,宇都宮大学前,S0904000573,宇都宮大学前
S0904000576,玉生車庫,S0904000576,玉生車庫
S090400057600100,玉生車庫,S0904000576,玉生車庫
S0904000577,玉生宿,S0904000577,玉生宿
S090400057700100,玉生宿,S0904000577,玉生宿
S090400057700200,玉生宿,S0904000577,玉生宿
S0904000578,喜多入口,S0904000578,喜多入口
S090400057800100,喜多入口,S0904000578,喜多入口
S090400057800200,喜多入口,S0904000578,喜多入口
S0904000579,道下,S0904000579,道下
S090400057900100,道下,S0904000579,道下
S090400057900200,道下,S0904000579,道下
S0904000580,原荻の目,S0904000580,原荻の目
S090400058000100,原荻の目,S0904000580,原荻の目
S090400058000200,原荻の目,S0904000580,原荻の目
S0904000581,金枝火の見下,S0904000581,金枝火の見下
S090400058100100,金枝火の見下,S0904000581,金枝火の見下
S090400058100200,金枝火の見下,S0904000581,金枝火の見下
S0904000582,金枝神社前,S0904000582,金枝神社前
S090400058200100,金枝神社前,S0904000582,金枝神社前
S090400058200200,金枝神社前,S0904000582,金枝神社前
S0904000583,大宮北,S0904000583,大宮北
S090400058300100,大宮北,S0904000583,大宮北
S090400058300200,大宮北,S0904000583,大宮北
S0904000584,大宮上町,S0904000584,大宮上町
S090400058400100,大宮上町,S0904000584,大宮上町
S090400058400200,大宮上町,S0904000584,大宮上町
S0904000585,大宮小学校入口,S0904000585,大宮小学校入口
S090400058500100,大宮小学校入口,S0904000585,大宮小学校入口
S090400058500200,大宮小学校入口,S0904000585,大宮小学校入口
S0904000586,大宮下町,S0904000586,大宮下町
S090400058600100,大宮下町,S0904000586,大宮下町
S090400058600200,大宮下町,S0904000586,大宮下町
S0904000587,氏家街道口,S0904000587,氏家街道口
S090400058700100,氏家街道口,S0904000587,氏家街道口
S090400058700200,氏家街道口,S0904000587,氏家街道口
S0904000588,風見入口,S0904000588,風見入口
S090400058800100,風見入口,S0904000588,風見入口
S090400058800200,風見入口,S0904000588,風見入口
S0904000589,上平,S0904000589,上平
S090400058900100,上平,S0904000589,上平
S090400058900200,上平,S0904000589,上平
S0904000590,逆木,S0904000590,逆木
S090400059000100,逆木,S0904000590,逆木
S090400059000200,逆木,S0904000590,逆木
S0904000591,逆木発電所入口,S0904000591,逆木発電所入口
S090400059100100,逆木発電所入口,S0904000591,逆木発電所入口
S090400059100200,逆木発電所入口,S0904000591,逆木発電所入口
S0904000592,板橋,S0904000592,板橋
S090400059200100,板橋,S0904000592,板橋
S090400059200200,板橋,S0904000592,板橋
S0904000593,上小倉上組,S0904000593,上小倉上組
S090400059300100,上小倉上組,S0904000593,上小倉上組
S090400059300200,上小倉上組,S0904000593,上小倉上組
S0904000594,上小倉西組,S0904000594,上小倉西組
S090400059400100,上小倉西組,S0904000594,上小倉西組
S090400059400200,上小倉西組,S0904000594,上小倉西組
S0904000595,下小倉入口,S0904000595,下小倉入口
S090400059500100,下小倉入口,S0904000595,下小倉入口
S090400059500200,下小倉入口,S0904000595,下小倉入口
S0904000596,今里下町,S0904000596,今里下町
S090400059600100,今里下町,S0904000596,今里下町
S090400059600200,今里下町,S0904000596,今里下町
S0904000597,羽黒山入口,S0904000597,羽黒山入口
S090400059700100,羽黒山入口,S0904000597,羽黒山入口
S090400059700200,羽黒山入口,S0904000597,羽黒山入口
S0904000598,今里,S0904000598,今里
S090400059800100,今里,S0904000598,今里
S090400059800200,今里,S0904000598,今里
S0904000599,今里下,S0904000599,今里下
S090400059900100,今里下,S0904000599,今里下
S090400059900200,今里下,S0904000599,今里下
S0904000600,老人福祉センター前,S0904000600,老人福祉センター前
S090400060000100,老人福祉センター前,S0904000600,老人福祉センター前
S090400060000200,老人福祉センター前,S0904000600,老人福祉センター前
S0904000601,松田,S0904000601,松田
S090400060100100,松田,S0904000601,松田
S090400060100200,松田,S0904000601,松田
S0904000602,上河内地区市民センター,S0904000602,上河内地区市民センター
S090400060200100,上河内地区市民センター,S0904000602,上河内地区市民センター
S090400060200200,上河内地区市民センター,S0904000602,上河内地区市民センター
S0904000603,中里原十文字,S0904000603,中里原十文字
S090400060300100,中里原十文字,S0904000603,中里原十文字
S090400060300200,中里原十文字,S0904000603,中里原十文字
S0904000604,中里原南,S0904000604,中里原南
S090400060400100,中里原南,S0904000604,中里原南
S090400060400200,中里原南,S0904000604,中里原南
S0904000605,東金田,S0904000605,東金田
S090400060500100,東金田,S0904000605,東金田
S090400060500200,東金田,S0904000605,東金田
S0904000606,金田南,S0904000606,金田南
S090400060600100,金田南,S0904000606,金田南
S090400060600200,金田南,S0904000606,金田南
S0904000607,柿の木,S0904000607,柿の木
S090400060700100,柿の木,S0904000607,柿の木
S090400060700200,柿の木,S0904000607,柿の木
S0904000608,相の沢入口,S0904000608,相の沢入口
S090400060800100,相の沢入口,S0904000608,相の沢入口
S090400060800200,相の沢入口,S0904000608,相の沢入口
S0904000609,宿田原,S0904000609,宿田原
S090400060900100,宿田原,S0904000609,宿田原
S090400060900200,宿田原,S0904000609,宿田原
S0904000610,上田原,S0904000610,上田原
S090400061000100,上田原,S0904000610,上田原
S090400061000200,上田原,S0904000610,上田原
S0904000611,中央市場前,S0904000611,中央市場前
S090400061100100,中央市場前,S0904000611,中央市場前
S090400061100200,中央市場前,S0904000611,中央市場前
S0904000612,簗瀬南,S0904000612,簗瀬南
S090400061200100,簗瀬南,S0904000612,簗瀬南
S090400061200200,簗瀬南,S0904000612,簗瀬南
S0904000613,下栗団地西,S0904000613,下栗団地西
S090400061300100,下栗団地西,S0904000613,下栗団地西
S090400061300200,下栗団地西,S0904000613,下栗団地西
S0904000614,砂田街道入口,S0904000614,砂田街道入口
S090400061400100,砂田街道入口,S0904000614,砂田街道入口
S090400061400200,砂田街道入口,S0904000614,砂田街道入口
S0904000615,川田北口,S0904000615,川田北口
S090400061500100,川田北口,S0904000615,川田北口
S090400061500200,川田北口,S0904000615,川田北口
S0904000616,東川田,S0904000616,東川田
S090400061600100,東川田,S0904000616,東川田
S090400061600200,東川田,S0904000616,東川田
S0904000617,大城内,S0904000617,大城内
S090400061700100,大城内,S0904000617,大城内
S090400061700200,大城内,S0904000617,大城内
S0904000618,屋板運動場,S0904000618,屋板運動場
S090400061800100,屋板運動場,S0904000618,屋板運動場
S090400061800200,屋板運動場,S0904000618,屋板運動場
S0904000619,星の宮神社前,S0904000619,星の宮神社前
S090400061900100,星の宮神社前,S0904000619,星の宮神社前
S090400061900200,星の宮神社前,S0904000619,星の宮神社前
S0904000620,屋板郵便局前,S0904000620,屋板郵便局前
S090400062000100,屋板郵便局前,S0904000620,屋板郵便局前
S090400062000200,屋板郵便局前,S0904000620,屋板郵便局前
S0904000621,ことぶき会館入口,S0904000621,ことぶき会館入口
S090400062100100,ことぶき会館入口,S0904000621,ことぶき会館入口
S090400062100200,ことぶき会館入口,S0904000621,ことぶき会館入口
S0904000622,下屋板,S0904000622,下屋板
S090400062200100,下屋板,S0904000622,下屋板
S090400062200200,下屋板,S0904000622,下屋板
S0904000624,東谷新田,S0904000624,東谷新田
S090400062400100,東谷新田,S0904000624,東谷新田
S090400062400200,東谷新田,S0904000624,東谷新田
S0904000625,南高校前,S0904000625,南高校前
S090400062500100,南高校前,S0904000625,南高校前
S090400062500200,南高校前,S0904000625,南高校前
S0904000626,東谷,S0904000626,東谷
S090400062600100,東谷,S0904000626,東谷
S090400062600200,東谷,S0904000626,東谷
S090400062600300,東谷,S0904000626,東谷
S0904000627,インターパーク宇都宮南,S0904000627,インターパーク宇都宮南
S090400062700100,インターパーク宇都宮南,S0904000627,インターパーク宇都宮南
S0904000628,下横田,S0904000628,下横田
S090400062800100,下横田,S0904000628,下横田
S090400062800200,下横田,S0904000628,下横田
S0904000629,石田,S0904000629,石田
S090400062900100,石田,S0904000629,石田
S090400062900200,石田,S0904000629,石田
S0904000630,西田北,S0904000630,西田北
S090400063000100,西田北,S0904000630,西田北
S090400063000200,西田北,S0904000630,西田北
S0904000631,石田柳屋前,S0904000631,石田柳屋前
S090400063100100,石田柳屋前,S0904000631,石田柳屋前
S090400063100200,石田柳屋前,S0904000631,石田柳屋前
S0904000632,上願成寺,S0904000632,上願成寺
S090400063200100,上願成寺,S0904000632,上願成寺
S090400063200200,上願成寺,S0904000632,上願成寺
S0904000633,上三川北小前,S0904000633,上三川北小前
S090400063300100,上三川北小前,S0904000633,上三川北小前
S090400063300200,上三川北小前,S0904000633,上三川北小前
S0904000634,上蒲生,S0904000634,上蒲生
S090400063400100,上蒲生,S0904000634,上蒲生
S090400063400200,上蒲生,S0904000634,上蒲生
S0904000635,日産前,S0904000635,日産前
S090400063500100,日産前,S0904000635,日産前
S090400063500200,日産前,S0904000635,日産前
S0904000636,荒田,S0904000636,荒田
S090400063600100,荒田,S0904000636,荒田
S090400063600200,荒田,S0904000636,荒田
S0904000637,上三川役場入口,S0904000637,上三川役場入口
S090400063700100,上三川役場入口,S0904000637,上三川役場入口
S090400063700200,上三川役場入口,S0904000637,上三川役場入口
S0904000638,白鷺神社前,S0904000638,白鷺神社前
S090400063800100,白鷺神社前,S0904000638,白鷺神社前
S090400063800200,白鷺神社前,S0904000638,白鷺神社前
S0904000639,普門寺前,S0904000639,普門寺前
S090400063900100,普門寺前,S0904000639,普門寺前
S090400063900200,普門寺前,S0904000639,普門寺前
S0904000640,大町（上三川町）,S0904000640,大町（上三川町）
S090400064000100,大町（上三川町）,S0904000640,大町（上三川町）
S090400064000200,大町（上三川町）,S0904000640,大町（上三川町）
S0904000641,中町,S0904000641,中町
S090400064100100,中町,S0904000641,中町
S090400064100200,中町,S0904000641,中町
S0904000642,上三川車庫前,S0904000642,上三川車庫前
S090400064200100,上三川車庫前,S0904000642,上三川車庫前
S090400064200200,上三川車庫前,S0904000642,上三川車庫前
S0904000643,クボタ前,S0904000643,クボタ前
S090400064300100,クボタ前,S0904000643,クボタ前
S090400064300200,クボタ前,S0904000643,クボタ前
S0904000644,平出工業団地,S0904000644,平出工業団地
S090400064400100,平出工業団地,S0904000644,平出工業団地
S090400064400200,平出工業団地,S0904000644,平出工業団地
S0904000645,日本信号前,S0904000645,日本信号前
S090400064500100,日本信号前,S0904000645,日本信号前
S090400064500200,日本信号前,S0904000645,日本信号前
S0904000650,さる山入口,S0904000650,さる山入口
S090400065000100,さる山入口,S0904000650,さる山入口
S090400065000200,さる山入口,S0904000650,さる山入口
S0904000651,上桑島,S0904000651,上桑島
S090400065100100,上桑島,S0904000651,上桑島
S090400065100200,上桑島,S0904000651,上桑島
S0904000652,柿の木坂,S0904000652,柿の木坂
S090400065200100,柿の木坂,S0904000652,柿の木坂
S090400065200200,柿の木坂,S0904000652,柿の木坂
S0904000653,西新宿,S0904000653,西新宿
S090400065300100,西新宿,S0904000653,西新宿
S090400065300200,西新宿,S0904000653,西新宿
S0904000654,新宿,S0904000654,新宿
S090400065400100,新宿,S0904000654,新宿
S090400065400200,新宿,S0904000654,新宿
S0904000655,下桑島,S0904000655,下桑島
S090400065500100,下桑島,S0904000655,下桑島
S090400065500200,下桑島,S0904000655,下桑島
S0904000656,谷川,S0904000656,谷川
S090400065600100,谷川,S0904000656,谷川
S090400065600200,谷川,S0904000656,谷川
S0904000657,森,S0904000657,森
S090400065700100,森,S0904000657,森
S090400065700200,森,S0904000657,森
S0904000658,畑中,S0904000658,畑中
S090400065800100,畑中,S0904000658,畑中
S090400065800200,畑中,S0904000658,畑中
S0904000659,前田内,S0904000659,前田内
S090400065900100,前田内,S0904000659,前田内
S090400065900200,前田内,S0904000659,前田内
S0904000661,西木の代,S0904000661,西木の代
S090400066100100,西木の代,S0904000661,西木の代
S090400066100200,西木の代,S0904000661,西木の代
S0904000662,露梨文挟,S0904000662,露梨文挟
S090400066200100,露梨文挟,S0904000662,露梨文挟
S090400066200200,露梨文挟,S0904000662,露梨文挟
S0904000663,東汗,S0904000663,東汗
S090400066300100,東汗,S0904000663,東汗
S090400066300200,東汗,S0904000663,東汗
S0904000664,成願寺街道入口,S0904000664,成願寺街道入口
S090400066400100,成願寺街道入口,S0904000664,成願寺街道入口
S090400066400200,成願寺街道入口,S0904000664,成願寺街道入口
S0904000665,瑞穂野中学校西,S0904000665,瑞穂野中学校西
S090400066500100,瑞穂野中学校西,S0904000665,瑞穂野中学校西
S090400066500200,瑞穂野中学校西,S0904000665,瑞穂野中学校西
S0904000666,瑞穂野市民センター,S0904000666,瑞穂野市民センター
S090400066600100,瑞穂野市民センター,S0904000666,瑞穂野市民センター
S090400066600200,瑞穂野市民センター,S0904000666,瑞穂野市民センター
S0904000667,刑部橋,S0904000667,刑部橋
S090400066700100,刑部橋,S0904000667,刑部橋
S090400066700200,刑部橋,S0904000667,刑部橋
S0904000668,万所成願寺,S0904000668,万所成願寺
S090400066800100,万所成願寺,S0904000668,万所成願寺
S090400066800200,万所成願寺,S0904000668,万所成願寺
S0904000669,中坪天神前,S0904000669,中坪天神前
S090400066900100,中坪天神前,S0904000669,中坪天神前
S090400066900200,中坪天神前,S0904000669,中坪天神前
S0904000670,田中内,S0904000670,田中内
S090400067000100,田中内,S0904000670,田中内
S090400067000200,田中内,S0904000670,田中内
S0904000671,平塚町,S0904000671,平塚町
S090400067100100,平塚町,S0904000671,平塚町
S090400067100200,平塚町,S0904000671,平塚町
S0904000672,高島橋,S0904000672,高島橋
S090400067200100,高島橋,S0904000672,高島橋
S090400067200200,高島橋,S0904000672,高島橋
S0904000673,本郷台東,S0904000673,本郷台東
S090400067300100,本郷台東,S0904000673,本郷台東
S090400067300200,本郷台東,S0904000673,本郷台東
S0904000674,ゆうがお公園,S0904000674,ゆうがお公園
S090400067400100,ゆうがお公園,S0904000674,ゆうがお公園
S090400067400200,ゆうがお公園,S0904000674,ゆうがお公園
S0904000675,本郷台,S0904000675,本郷台
S090400067500100,本郷台,S0904000675,本郷台
S090400067500200,本郷台,S0904000675,本郷台
S0904000676,本郷台団地南,S0904000676,本郷台団地南
S090400067600100,本郷台団地南,S0904000676,本郷台団地南
S090400067600200,本郷台団地南,S0904000676,本郷台団地南
S0904000677,本郷台西汗,S0904000677,本郷台西汗
S090400067700100,本郷台西汗,S0904000677,本郷台西汗
S0904000678,中央橋,S0904000678,中央橋
S090400067800100,中央橋,S0904000678,中央橋
S090400067800200,中央橋,S0904000678,中央橋
S090400067800101,中央橋,S0904000678,中央橋
S090400067800201,中央橋,S0904000678,中央橋
S090400067800102,中央橋,S0904000678,中央橋
S090400067800203,中央橋,S0904000678,中央橋
S0904000679,緑の郷入口,S0904000679,緑の郷入口
S090400067900100,緑の郷入口,S0904000679,緑の郷入口
S090400067900200,緑の郷入口,S0904000679,緑の郷入口
S090400067900101,緑の郷入口,S0904000679,緑の郷入口
S090400067900201,緑の郷入口,S0904000679,緑の郷入口
S090400067900102,緑の郷入口,S0904000679,緑の郷入口
S090400067900203,緑の郷入口,S0904000679,緑の郷入口
S0904000680,みずほ幼稚園北,S0904000680,みずほ幼稚園北
S090400068000100,みずほ幼稚園北,S0904000680,みずほ幼稚園北
S090400068000101,みずほ幼稚園北,S0904000680,みずほ幼稚園北
S0904000681,東町（日光市）,S0904000681,東町（日光市）
S090400068100100,東町（日光市）,S0904000681,東町（日光市）
S090400068100200,東町（日光市）,S0904000681,東町（日光市）
S0904000682,東武下今市駅入口,S0904000682,東武下今市駅入口
S090400068200100,東武下今市駅入口,S0904000682,東武下今市駅入口
S090400068200200,東武下今市駅入口,S0904000682,東武下今市駅入口
S0904000683,七本桜入口,S0904000683,七本桜入口
S090400068300100,七本桜入口,S0904000683,七本桜入口
S090400068300200,七本桜入口,S0904000683,七本桜入口
S0904000684,赤間々,S0904000684,赤間々
S090400068400100,赤間々,S0904000684,赤間々
S090400068400200,赤間々,S0904000684,赤間々
S0904000685,市営住宅前,S0904000685,市営住宅前
S090400068500100,市営住宅前,S0904000685,市営住宅前
S090400068500200,市営住宅前,S0904000685,市営住宅前
S0904000686,今市中学校前,S0904000686,今市中学校前
S090400068600100,今市中学校前,S0904000686,今市中学校前
S090400068600200,今市中学校前,S0904000686,今市中学校前
S0904000687,芝山住宅前,S0904000687,芝山住宅前
S090400068700100,芝山住宅前,S0904000687,芝山住宅前
S090400068700200,芝山住宅前,S0904000687,芝山住宅前
S0904000688,古河バッテリー前,S0904000688,古河バッテリー前
S090400068800100,古河バッテリー前,S0904000688,古河バッテリー前
S090400068800200,古河バッテリー前,S0904000688,古河バッテリー前
S0904000689,今市工高前,S0904000689,今市工高前
S090400068900100,今市工高前,S0904000689,今市工高前
S090400068900200,今市工高前,S0904000689,今市工高前
S0904000690,荊沢入口,S0904000690,荊沢入口
S090400069000100,荊沢入口,S0904000690,荊沢入口
S090400069000200,荊沢入口,S0904000690,荊沢入口
S0904000691,大室西原,S0904000691,大室西原
S090400069100100,大室西原,S0904000691,大室西原
S090400069100200,大室西原,S0904000691,大室西原
S0904000692,大室下西原,S0904000692,大室下西原
S090400069200100,大室下西原,S0904000692,大室下西原
S090400069200200,大室下西原,S0904000692,大室下西原
S0904000693,大室学道,S0904000693,大室学道
S090400069300100,大室学道,S0904000693,大室学道
S090400069300200,大室学道,S0904000693,大室学道
S0904000694,大室十文字,S0904000694,大室十文字
S090400069400100,大室十文字,S0904000694,大室十文字
S090400069400200,大室十文字,S0904000694,大室十文字
S0904000695,向原,S0904000695,向原
S090400069500100,向原,S0904000695,向原
S090400069500200,向原,S0904000695,向原
S0904000696,蛇木入口,S0904000696,蛇木入口
S090400069600100,蛇木入口,S0904000696,蛇木入口
S090400069600200,蛇木入口,S0904000696,蛇木入口
S0904000697,矢野口,S0904000697,矢野口
S090400069700100,矢野口,S0904000697,矢野口
S090400069700200,矢野口,S0904000697,矢野口
S0904000698,上の原,S0904000698,上の原
S090400069800100,上の原,S0904000698,上の原
S090400069800200,上の原,S0904000698,上の原
S0904000699,沢又入口,S0904000699,沢又入口
S090400069900100,沢又入口,S0904000699,沢又入口
S090400069900200,沢又入口,S0904000699,沢又入口
S0904000700,和田新道入口,S0904000700,和田新道入口
S090400070000100,和田新道入口,S0904000700,和田新道入口
S090400070000200,和田新道入口,S0904000700,和田新道入口
S0904000701,和田,S0904000701,和田
S090400070100100,和田,S0904000701,和田
S090400070100200,和田,S0904000701,和田
S0904000702,小林農協前,S0904000702,小林農協前
S090400070200100,小林農協前,S0904000702,小林農協前
S090400070200200,小林農協前,S0904000702,小林農協前
S0904000703,公民館前（日光市）,S0904000703,公民館前（日光市）
S090400070300100,公民館前（日光市）,S0904000703,公民館前（日光市）
S090400070300200,公民館前（日光市）,S0904000703,公民館前（日光市）
S0904000704,樋場,S0904000704,樋場
S090400070400100,樋場,S0904000704,樋場
S090400070400200,樋場,S0904000704,樋場
S0904000705,大木,S0904000705,大木
S090400070500100,大木,S0904000705,大木
S090400070500200,大木,S0904000705,大木
S0904000706,細内,S0904000706,細内
S090400070600100,細内,S0904000706,細内
S090400070600200,細内,S0904000706,細内
S0904000707,六斗蒔,S0904000707,六斗蒔
S090400070700100,六斗蒔,S0904000707,六斗蒔
S090400070700200,六斗蒔,S0904000707,六斗蒔
S0904000709,下小林,S0904000709,下小林
S090400070900100,下小林,S0904000709,下小林
S090400070900200,下小林,S0904000709,下小林
S0904000710,佐野新都市バスターミナル,S0904000710,佐野新都市バスターミナル
S090400071000100,佐野新都市バスターミナル,S0904000710,佐野新都市バスターミナル
S090400071000101,佐野新都市バスターミナル,S0904000710,佐野新都市バスターミナル
S0904000711,佐野アウトレット,S0904000711,佐野アウトレット
S090400071100100,佐野アウトレット,S0904000711,佐野アウトレット
S090400071100101,佐野アウトレット,S0904000711,佐野アウトレット
S0904000712,イオンモール佐野新都市,S0904000712,イオンモール佐野新都市
S090400071200100,イオンモール佐野新都市,S0904000712,イオンモール佐野新都市
S090400071200101,イオンモール佐野新都市,S0904000712,イオンモール佐野新都市
S0904000714,工業団地南（佐野市）,S0904000714,工業団地南（佐野市）
S090400071400100,工業団地南（佐野市）,S0904000714,工業団地南（佐野市）
S090400071400200,工業団地南（佐野市）,S0904000714,工業団地南（佐野市）
S090400071400201,工業団地南（佐野市）,S0904000714,工業団地南（佐野市）
S0904000715,佐野警察署南,S0904000715,佐野警察署南
S090400071500100,佐野警察署南,S0904000715,佐野警察署南
S090400071500200,佐野警察署南,S0904000715,佐野警察署南
S0904000716,佐野医師会病院,S0904000716,佐野医師会病院
S090400071600100,佐野医師会病院,S0904000716,佐野医師会病院
S090400071600200,佐野医師会病院,S0904000716,佐野医師会病院
S0904000717,佐野厄除け大師,S0904000717,佐野厄除け大師
S090400071700100,佐野厄除け大師,S0904000717,佐野厄除け大師
S090400071700200,佐野厄除け大師,S0904000717,佐野厄除け大師
S0904000718,大町（佐野市）,S0904000718,大町（佐野市）
S090400071800100,大町（佐野市）,S0904000718,大町（佐野市）
S090400071800200,大町（佐野市）,S0904000718,大町（佐野市）
S0904000719,佐野駅,S0904000719,佐野駅
S090400071900100,佐野駅,S0904000719,佐野駅
S0904000720,相生町,S0904000720,相生町
S090400072000100,相生町,S0904000720,相生町
S090400072000200,相生町,S0904000720,相生町
S0904000721,浅沼町,S0904000721,浅沼町
S090400072100100,浅沼町,S0904000721,浅沼町
S090400072100200,浅沼町,S0904000721,浅沼町
S0904000722,佐野市文化会館前,S0904000722,佐野市文化会館前
S090400072200100,佐野市文化会館前,S0904000722,佐野市文化会館前
S090400072200200,佐野市文化会館前,S0904000722,佐野市文化会館前
S0904000723,竹林,S0904000723,竹林
S090400072300100,竹林,S0904000723,竹林
S090400072300200,竹林,S0904000723,竹林
S0904000724,豊郷南小学校前,S0904000724,豊郷南小学校前
S090400072400100,豊郷南小学校前,S0904000724,豊郷南小学校前
S090400072400200,豊郷南小学校前,S0904000724,豊郷南小学校前
S0904000725,地蔵前,S0904000725,地蔵前
S090400072500100,地蔵前,S0904000725,地蔵前
S090400072500200,地蔵前,S0904000725,地蔵前
S0904000726,宇都宮化成前,S0904000726,宇都宮化成前
S090400072600100,宇都宮化成前,S0904000726,宇都宮化成前
S090400072600200,宇都宮化成前,S0904000726,宇都宮化成前
S0904000727,堀切,S0904000727,堀切
S090400072700100,堀切,S0904000727,堀切
S090400072700200,堀切,S0904000727,堀切
S0904000728,前原,S0904000728,前原
S090400072800100,前原,S0904000728,前原
S090400072800200,前原,S0904000728,前原
S0904000729,下海道町,S0904000729,下海道町
S090400072900100,下海道町,S0904000729,下海道町
S090400072900200,下海道町,S0904000729,下海道町
S0904000730,中海道町,S0904000730,中海道町
S090400073000100,中海道町,S0904000730,中海道町
S090400073000200,中海道町,S0904000730,中海道町
S090400073000300,中海道町,S0904000730,中海道町
S0904000731,上海道町,S0904000731,上海道町
S090400073100100,上海道町,S0904000731,上海道町
S090400073100200,上海道町,S0904000731,上海道町
S0904000732,稚ケ坂,S0904000732,稚ケ坂
S090400073200100,稚ケ坂,S0904000732,稚ケ坂
S090400073200200,稚ケ坂,S0904000732,稚ケ坂
S0904000733,稚ヶ坂坂上,S0904000733,稚ヶ坂坂上
S090400073300100,稚ヶ坂坂上,S0904000733,稚ヶ坂坂上
S090400073300200,稚ヶ坂坂上,S0904000733,稚ヶ坂坂上
S0904000734,石割塚,S0904000734,石割塚
S090400073400100,石割塚,S0904000734,石割塚
S090400073400200,石割塚,S0904000734,石割塚
S0904000735,河内総合福祉センター,S0904000735,河内総合福祉センター
S090400073500100,河内総合福祉センター,S0904000735,河内総合福祉センター
S090400073500200,河内総合福祉センター,S0904000735,河内総合福祉センター
S0904000736,岡本街道口,S0904000736,岡本街道口
S090400073600100,岡本街道口,S0904000736,岡本街道口
S090400073600200,岡本街道口,S0904000736,岡本街道口
S0904000737,白沢宿,S0904000737,白沢宿
S090400073700100,白沢宿,S0904000737,白沢宿
S090400073700200,白沢宿,S0904000737,白沢宿
S0904000738,白沢小学校入口,S0904000738,白沢小学校入口
S090400073800100,白沢小学校入口,S0904000738,白沢小学校入口
S090400073800200,白沢小学校入口,S0904000738,白沢小学校入口
S0904000739,白沢河原,S0904000739,白沢河原
S090400073900100,白沢河原,S0904000739,白沢河原
S0904000740,自治医大駅,S0904000740,自治医大駅
S090400074000100,自治医大駅,S0904000740,自治医大駅
S0904000741,自治医大駅東,S0904000741,自治医大駅東
S090400074100100,自治医大駅東,S0904000741,自治医大駅東
S090400074100200,自治医大駅東,S0904000741,自治医大駅東
S0904000742,自治医大病院,S0904000742,自治医大病院
S090400074200100,自治医大病院,S0904000742,自治医大病院
S0904000743,小山駅東口,S0904000743,小山駅東口
S090400074300100,小山駅東口,S0904000743,小山駅東口
S090400074300101,小山駅東口,S0904000743,小山駅東口
S0904000744,駅東通り１丁目,S0904000744,駅東通り１丁目
S090400074400100,駅東通り１丁目,S0904000744,駅東通り１丁目
S090400074400200,駅東通り１丁目,S0904000744,駅東通り１丁目
S090400074400201,駅東通り１丁目,S0904000744,駅東通り１丁目
S0904000745,祝町公園南,S0904000745,祝町公園南
S090400074500100,祝町公園南,S0904000745,祝町公園南
S0904000746,駅南町１丁目,S0904000746,駅南町１丁目
S090400074600100,駅南町１丁目,S0904000746,駅南町１丁目
S090400074600200,駅南町１丁目,S0904000746,駅南町１丁目
S0904000747,三峯２丁目,S0904000747,三峯２丁目
S090400074700100,三峯２丁目,S0904000747,三峯２丁目
S090400074700200,三峯２丁目,S0904000747,三峯２丁目
S0904000750,青蓮寺公園前,S0904000750,青蓮寺公園前
S090400075000100,青蓮寺公園前,S0904000750,青蓮寺公園前
S090400075000200,青蓮寺公園前,S0904000750,青蓮寺公園前
S0904000751,稲荷公園北,S0904000751,稲荷公園北
S090400075100100,稲荷公園北,S0904000751,稲荷公園北
S090400075100200,稲荷公園北,S0904000751,稲荷公園北
S0904000752,西城南１丁目,S0904000752,西城南１丁目
S090400075200100,西城南１丁目,S0904000752,西城南１丁目
S090400075200200,西城南１丁目,S0904000752,西城南１丁目
S0904000753,城南小前,S0904000753,城南小前
S090400075300100,城南小前,S0904000753,城南小前
S090400075300200,城南小前,S0904000753,城南小前
S0904000754,城南小南,S0904000754,城南小南
S090400075400100,城南小南,S0904000754,城南小南
S090400075400200,城南小南,S0904000754,城南小南
S0904000755,城南高校西,S0904000755,城南高校西
S090400075500100,城南高校西,S0904000755,城南高校西
S090400075500200,城南高校西,S0904000755,城南高校西
S0904000756,城南高校南,S0904000756,城南高校南
S090400075600100,城南高校南,S0904000756,城南高校南
S090400075600200,城南高校南,S0904000756,城南高校南
S0904000757,城南高校前,S0904000757,城南高校前
S090400075700100,城南高校前,S0904000757,城南高校前
S090400075700200,城南高校前,S0904000757,城南高校前
S0904000758,宮脇書店前,S0904000758,宮脇書店前
S090400075800100,宮脇書店前,S0904000758,宮脇書店前
S090400075800200,宮脇書店前,S0904000758,宮脇書店前
S0904000759,城南公園入口,S0904000759,城南公園入口
S090400075900100,城南公園入口,S0904000759,城南公園入口
S090400075900200,城南公園入口,S0904000759,城南公園入口
S0904000760,マルエツ前,S0904000760,マルエツ前
S090400076000100,マルエツ前,S0904000760,マルエツ前
S090400076000200,マルエツ前,S0904000760,マルエツ前
S0904000761,ケーヨーＤ２前,S0904000761,ケーヨーＤ２前
S090400076100100,ケーヨーＤ２前,S0904000761,ケーヨーＤ２前
S090400076100200,ケーヨーＤ２前,S0904000761,ケーヨーＤ２前
S0904000763,西坪公園東,S0904000763,西坪公園東
S090400076300100,西坪公園東,S0904000763,西坪公園東
S090400076300200,西坪公園東,S0904000763,西坪公園東
S0904000764,せきぐち電気前,S0904000764,せきぐち電気前
S090400076400100,せきぐち電気前,S0904000764,せきぐち電気前
S090400076400200,せきぐち電気前,S0904000764,せきぐち電気前
S0904000766,城南中東,S0904000766,城南中東
S090400076600100,城南中東,S0904000766,城南中東
S090400076600200,城南中東,S0904000766,城南中東
S0904000767,東京オート前,S0904000767,東京オート前
S090400076700100,東京オート前,S0904000767,東京オート前
S090400076700200,東京オート前,S0904000767,東京オート前
S0904000768,森子塚公園南,S0904000768,森子塚公園南
S090400076800100,森子塚公園南,S0904000768,森子塚公園南
S090400076800200,森子塚公園南,S0904000768,森子塚公園南
S0904000769,あさひ公園南,S0904000769,あさひ公園南
S090400076900100,あさひ公園南,S0904000769,あさひ公園南
S090400076900200,あさひ公園南,S0904000769,あさひ公園南
S0904000770,旭小学校前,S0904000770,旭小学校前
S090400077000100,旭小学校前,S0904000770,旭小学校前
S090400077000200,旭小学校前,S0904000770,旭小学校前
S0904000771,駅南町３丁目,S0904000771,駅南町３丁目
S090400077100100,駅南町３丁目,S0904000771,駅南町３丁目
S090400077100200,駅南町３丁目,S0904000771,駅南町３丁目
S0904000772,祝町公園前,S0904000772,祝町公園前
S090400077200100,祝町公園前,S0904000772,祝町公園前
S0904000773,駅南町２丁目,S0904000773,駅南町２丁目
S090400077300100,駅南町２丁目,S0904000773,駅南町２丁目
S0904000774,あさひ保育園西,S0904000774,あさひ保育園西
S090400077400100,あさひ保育園西,S0904000774,あさひ保育園西
S0904000775,雀宮中央小,S0904000775,雀宮中央小
S090400077500100,雀宮中央小,S0904000775,雀宮中央小
S090400077500200,雀宮中央小,S0904000775,雀宮中央小
S0904000776,雀宮五丁目,S0904000776,雀宮五丁目
S090400077600100,雀宮五丁目,S0904000776,雀宮五丁目
S090400077600200,雀宮五丁目,S0904000776,雀宮五丁目
S0904000777,新富町,S0904000777,新富町
S090400077700100,新富町,S0904000777,新富町
S090400077700200,新富町,S0904000777,新富町
S0904000778,南高砂町,S0904000778,南高砂町
S090400077800100,南高砂町,S0904000778,南高砂町
S090400077800200,南高砂町,S0904000778,南高砂町
S0904000779,雀宮南小学校,S0904000779,雀宮南小学校
S090400077900100,雀宮南小学校,S0904000779,雀宮南小学校
S090400077900200,雀宮南小学校,S0904000779,雀宮南小学校
S0904000780,南町二丁目,S0904000780,南町二丁目
S090400078000100,南町二丁目,S0904000780,南町二丁目
S090400078000200,南町二丁目,S0904000780,南町二丁目
S0904000781,南町自治会館,S0904000781,南町自治会館
S090400078100100,南町自治会館,S0904000781,南町自治会館
S090400078100200,南町自治会館,S0904000781,南町自治会館
S0904000782,南町児童公園,S0904000782,南町児童公園
S090400078200100,南町児童公園,S0904000782,南町児童公園
S090400078200200,南町児童公園,S0904000782,南町児童公園
S0904000783,南町北,S0904000783,南町北
S090400078300100,南町北,S0904000783,南町北
S090400078300200,南町北,S0904000783,南町北
S0904000784,南町西,S0904000784,南町西
S090400078400100,南町西,S0904000784,南町西
S090400078400200,南町西,S0904000784,南町西
S0904000785,さつき中央児童公園,S0904000785,さつき中央児童公園
S090400078500100,さつき中央児童公園,S0904000785,さつき中央児童公園
S090400078500200,さつき中央児童公園,S0904000785,さつき中央児童公園
S0904000786,雀宮南小西,S0904000786,雀宮南小西
S090400078600100,雀宮南小西,S0904000786,雀宮南小西
S090400078600200,雀宮南小西,S0904000786,雀宮南小西
S0904000787,さつき三丁目,S0904000787,さつき三丁目
S090400078700100,さつき三丁目,S0904000787,さつき三丁目
S090400078700200,さつき三丁目,S0904000787,さつき三丁目
S0904000788,さつき団地局,S0904000788,さつき団地局
S090400078800100,さつき団地局,S0904000788,さつき団地局
S090400078800200,さつき団地局,S0904000788,さつき団地局
S0904000789,雀宮中西,S0904000789,雀宮中西
S090400078900100,雀宮中西,S0904000789,雀宮中西
S090400078900200,雀宮中西,S0904000789,雀宮中西
S0904000790,さつき３号児童公園,S0904000790,さつき３号児童公園
S090400079000100,さつき３号児童公園,S0904000790,さつき３号児童公園
S090400079000200,さつき３号児童公園,S0904000790,さつき３号児童公園
S0904000791,さつき一丁目北,S0904000791,さつき一丁目北
S090400079100100,さつき一丁目北,S0904000791,さつき一丁目北
S090400079100200,さつき一丁目北,S0904000791,さつき一丁目北
S0904000792,みどり野町南,S0904000792,みどり野町南
S090400079200100,みどり野町南,S0904000792,みどり野町南
S090400079200200,みどり野町南,S0904000792,みどり野町南
S0904000793,五代小西,S0904000793,五代小西
S090400079300100,五代小西,S0904000793,五代小西
S090400079300200,五代小西,S0904000793,五代小西
S0904000794,みどり野町中,S0904000794,みどり野町中
S090400079400100,みどり野町中,S0904000794,みどり野町中
S090400079400200,みどり野町中,S0904000794,みどり野町中
S0904000795,若松原中西,S0904000795,若松原中西
S090400079500100,若松原中西,S0904000795,若松原中西
S090400079500200,若松原中西,S0904000795,若松原中西
S0904000796,兵庫塚一丁目,S0904000796,兵庫塚一丁目
S090400079600100,兵庫塚一丁目,S0904000796,兵庫塚一丁目
S090400079600200,兵庫塚一丁目,S0904000796,兵庫塚一丁目
S0904000797,旭ヶ丘公民館,S0904000797,旭ヶ丘公民館
S090400079700100,旭ヶ丘公民館,S0904000797,旭ヶ丘公民館
S090400079700200,旭ヶ丘公民館,S0904000797,旭ヶ丘公民館
S0904000798,兵庫塚二丁目,S0904000798,兵庫塚二丁目
S090400079800100,兵庫塚二丁目,S0904000798,兵庫塚二丁目
S090400079800200,兵庫塚二丁目,S0904000798,兵庫塚二丁目
S0904000799,兵庫塚町,S0904000799,兵庫塚町
S090400079900100,兵庫塚町,S0904000799,兵庫塚町
S090400079900200,兵庫塚町,S0904000799,兵庫塚町
S0904000800,兵庫塚入口,S0904000800,兵庫塚入口
S090400080000100,兵庫塚入口,S0904000800,兵庫塚入口
S090400080000200,兵庫塚入口,S0904000800,兵庫塚入口
S0904000801,西川田南,S0904000801,西川田南
S090400080100100,西川田南,S0904000801,西川田南
S0904000802,西川田五丁目,S0904000802,西川田五丁目
S090400080200100,西川田五丁目,S0904000802,西川田五丁目
S090400080200200,西川田五丁目,S0904000802,西川田五丁目
S0904000803,西川田駅東口,S0904000803,西川田駅東口
S090400080300100,西川田駅東口,S0904000803,西川田駅東口
S0904000804,上三川街道入口,S0904000804,上三川街道入口
S090400080400100,上三川街道入口,S0904000804,上三川街道入口
S090400080400200,上三川街道入口,S0904000804,上三川街道入口
S0904000806,宿多功,S0904000806,宿多功
S090400080600100,宿多功,S0904000806,宿多功
S090400080600200,宿多功,S0904000806,宿多功
S0904000807,台宿,S0904000807,台宿
S090400080700100,台宿,S0904000807,台宿
S090400080700200,台宿,S0904000807,台宿
S0904000808,下梁,S0904000808,下梁
S090400080800100,下梁,S0904000808,下梁
S090400080800200,下梁,S0904000808,下梁
S0904000809,川中子,S0904000809,川中子
S090400080900100,川中子,S0904000809,川中子
S090400080900200,川中子,S0904000809,川中子
S0904000810,下蒲生,S0904000810,下蒲生
S090400081000100,下蒲生,S0904000810,下蒲生
S090400081000200,下蒲生,S0904000810,下蒲生
S0904000811,道城林,S0904000811,道城林
S090400081100100,道城林,S0904000811,道城林
S090400081100200,道城林,S0904000811,道城林
S0904000812,上三川小学校前,S0904000812,上三川小学校前
S090400081200100,上三川小学校前,S0904000812,上三川小学校前
S090400081200200,上三川小学校前,S0904000812,上三川小学校前
S0904000813,峰町,S0904000813,峰町
S090400081300100,峰町,S0904000813,峰町
S090400081300200,峰町,S0904000813,峰町
S0904000814,上三川病院前,S0904000814,上三川病院前
S090400081400100,上三川病院前,S0904000814,上三川病院前
S090400081400200,上三川病院前,S0904000814,上三川病院前
S0904000815,江戸川入口,S0904000815,江戸川入口
S090400081500100,江戸川入口,S0904000815,江戸川入口
S090400081500200,江戸川入口,S0904000815,江戸川入口
S0904000816,上郷,S0904000816,上郷
S090400081600100,上郷,S0904000816,上郷
S090400081600200,上郷,S0904000816,上郷
S0904000817,粕田川岸,S0904000817,粕田川岸
S090400081700100,粕田川岸,S0904000817,粕田川岸
S090400081700200,粕田川岸,S0904000817,粕田川岸
S0904000818,大沼,S0904000818,大沼
S090400081800100,大沼,S0904000818,大沼
S090400081800200,大沼,S0904000818,大沼
S0904000819,上大沼,S0904000819,上大沼
S090400081900100,上大沼,S0904000819,上大沼
S090400081900200,上大沼,S0904000819,上大沼
S0904000820,長田,S0904000820,長田
S090400082000100,長田,S0904000820,長田
S090400082000200,長田,S0904000820,長田
S0904000821,真岡工業団地,S0904000821,真岡工業団地
S090400082100100,真岡工業団地,S0904000821,真岡工業団地
S090400082100200,真岡工業団地,S0904000821,真岡工業団地
S0904000822,長田東,S0904000822,長田東
S090400082200100,長田東,S0904000822,長田東
S090400082200200,長田東,S0904000822,長田東
S0904000823,高勢町入口,S0904000823,高勢町入口
S090400082300100,高勢町入口,S0904000823,高勢町入口
S090400082300200,高勢町入口,S0904000823,高勢町入口
S0904000824,西高間木,S0904000824,西高間木
S090400082400100,西高間木,S0904000824,西高間木
S090400082400200,西高間木,S0904000824,西高間木
S0904000825,上高間木,S0904000825,上高間木
S090400082500100,上高間木,S0904000825,上高間木
S090400082500200,上高間木,S0904000825,上高間木
S0904000826,熊倉町,S0904000826,熊倉町
S090400082600100,熊倉町,S0904000826,熊倉町
S090400082600200,熊倉町,S0904000826,熊倉町
S0904000827,真岡中学校前,S0904000827,真岡中学校前
S090400082700100,真岡中学校前,S0904000827,真岡中学校前
S090400082700200,真岡中学校前,S0904000827,真岡中学校前
S0904000828,高寺下,S0904000828,高寺下
S090400082800100,高寺下,S0904000828,高寺下
S090400082800200,高寺下,S0904000828,高寺下
S090400082800300,高寺下,S0904000828,高寺下
S090400082800400,高寺下,S0904000828,高寺下
S0904000829,台町,S0904000829,台町
S090400082900100,台町,S0904000829,台町
S090400082900200,台町,S0904000829,台町
S0904000831,真岡駅入口,S0904000831,真岡駅入口
S090400083100100,真岡駅入口,S0904000831,真岡駅入口
S0904000832,真岡駅前,S0904000832,真岡駅前
S090400083200100,真岡駅前,S0904000832,真岡駅前
S090400083200101,真岡駅前,S0904000832,真岡駅前
S0904000834,真岡女子高校,S0904000834,真岡女子高校
S090400083400100,真岡女子高校,S0904000834,真岡女子高校
S090400083400101,真岡女子高校,S0904000834,真岡女子高校
S0904000835,真岡市役所前,S0904000835,真岡市役所前
S090400083500100,真岡市役所前,S0904000835,真岡市役所前
S090400083500200,真岡市役所前,S0904000835,真岡市役所前
S0904000836,荒町［真岡市］,S0904000836,荒町［真岡市］
S090400083600100,荒町［真岡市］,S0904000836,荒町［真岡市］
S090400083600200,荒町［真岡市］,S0904000836,荒町［真岡市］
S0904000838,栃木駅,S0904000838,栃木駅
S090400083800100,栃木駅,S0904000838,栃木駅
S0904000839,境町,S0904000839,境町
S090400083900100,境町,S0904000839,境町
S090400083900200,境町,S0904000839,境町
S0904000842,幸来橋,S0904000842,幸来橋
S090400084200100,幸来橋,S0904000842,幸来橋
S090400084200200,幸来橋,S0904000842,幸来橋
S0904000845,栃木女子高校前,S0904000845,栃木女子高校前
S090400084500100,栃木女子高校前,S0904000845,栃木女子高校前
S090400084500200,栃木女子高校前,S0904000845,栃木女子高校前
S0904000846,栃木商業高校前,S0904000846,栃木商業高校前
S090400084600100,栃木商業高校前,S0904000846,栃木商業高校前
S090400084600200,栃木商業高校前,S0904000846,栃木商業高校前
S0904000847,第五小学校前,S0904000847,第五小学校前
S090400084700100,第五小学校前,S0904000847,第五小学校前
S090400084700200,第五小学校前,S0904000847,第五小学校前
S0904000848,二杉神社前,S0904000848,二杉神社前
S090400084800100,二杉神社前,S0904000848,二杉神社前
S090400084800200,二杉神社前,S0904000848,二杉神社前
S0904000850,信行寺前,S0904000850,信行寺前
S090400085000100,信行寺前,S0904000850,信行寺前
S090400085000200,信行寺前,S0904000850,信行寺前
S0904000851,平井公民館前,S0904000851,平井公民館前
S090400085100100,平井公民館前,S0904000851,平井公民館前
S090400085100200,平井公民館前,S0904000851,平井公民館前
S0904000852,国学院前,S0904000852,国学院前
S090400085200100,国学院前,S0904000852,国学院前
S0904000853,岡本西小入口,S0904000853,岡本西小入口
S090400085300100,岡本西小入口,S0904000853,岡本西小入口
S090400085300200,岡本西小入口,S0904000853,岡本西小入口
S0904000854,釜井台団地入口,S0904000854,釜井台団地入口
S090400085400100,釜井台団地入口,S0904000854,釜井台団地入口
S090400085400200,釜井台団地入口,S0904000854,釜井台団地入口
S0904000855,釜井台団地中央,S0904000855,釜井台団地中央
S090400085500100,釜井台団地中央,S0904000855,釜井台団地中央
S090400085500200,釜井台団地中央,S0904000855,釜井台団地中央
S0904000856,釜井台団地南,S0904000856,釜井台団地南
S090400085600100,釜井台団地南,S0904000856,釜井台団地南
S090400085600200,釜井台団地南,S0904000856,釜井台団地南
S0904000857,釜井台団地,S0904000857,釜井台団地
S090400085700100,釜井台団地,S0904000857,釜井台団地
S0904000858,下川俣町東,S0904000858,下川俣町東
S090400085800100,下川俣町東,S0904000858,下川俣町東
S090400085800200,下川俣町東,S0904000858,下川俣町東
S0904000859,御幸ヶ原,S0904000859,御幸ヶ原
S090400085900100,御幸ヶ原,S0904000859,御幸ヶ原
S090400085900200,御幸ヶ原,S0904000859,御幸ヶ原
S0904000860,御幸が原小学校前,S0904000860,御幸が原小学校前
S090400086000100,御幸が原小学校前,S0904000860,御幸が原小学校前
S090400086000200,御幸が原小学校前,S0904000860,御幸が原小学校前
S0904000861,金井台南,S0904000861,金井台南
S090400086100100,金井台南,S0904000861,金井台南
S090400086100200,金井台南,S0904000861,金井台南
S0904000862,金井台中,S0904000862,金井台中
S090400086200100,金井台中,S0904000862,金井台中
S090400086200200,金井台中,S0904000862,金井台中
S0904000863,金井台上,S0904000863,金井台上
S090400086300100,金井台上,S0904000863,金井台上
S090400086300200,金井台上,S0904000863,金井台上
S0904000864,奈坪台入口,S0904000864,奈坪台入口
S090400086400100,奈坪台入口,S0904000864,奈坪台入口
S090400086400200,奈坪台入口,S0904000864,奈坪台入口
S0904000865,奈坪台南,S0904000865,奈坪台南
S090400086500100,奈坪台南,S0904000865,奈坪台南
S090400086500200,奈坪台南,S0904000865,奈坪台南
S0904000866,奈坪台中央,S0904000866,奈坪台中央
S090400086600100,奈坪台中央,S0904000866,奈坪台中央
S090400086600200,奈坪台中央,S0904000866,奈坪台中央
S0904000867,河内図書館,S0904000867,河内図書館
S090400086700100,河内図書館,S0904000867,河内図書館
S090400086700200,河内図書館,S0904000867,河内図書館
S0904000868,奈坪台北,S0904000868,奈坪台北
S090400086800100,奈坪台北,S0904000868,奈坪台北
S090400086800200,奈坪台北,S0904000868,奈坪台北
S0904000869,奈坪台西口,S0904000869,奈坪台西口
S090400086900100,奈坪台西口,S0904000869,奈坪台西口
S090400086900200,奈坪台西口,S0904000869,奈坪台西口
S0904000872,駅南町４丁目,S0904000872,駅南町４丁目
S090400087200100,駅南町４丁目,S0904000872,駅南町４丁目
S0904000874,市営塚崎住宅,S0904000874,市営塚崎住宅
S090400087400100,市営塚崎住宅,S0904000874,市営塚崎住宅
S090400087400200,市営塚崎住宅,S0904000874,市営塚崎住宅
S0904000877,新市民病院,S0904000877,新市民病院
S090400087700100,新市民病院,S0904000877,新市民病院
S0904000930,産業技術大学前,S0904000930,産業技術大学前
S090400093000100,産業技術大学前,S0904000930,産業技術大学前
S090400093000200,産業技術大学前,S0904000930,産業技術大学前
S0904000931,平出工業団地南,S0904000931,平出工業団地南
S090400093100100,平出工業団地南,S0904000931,平出工業団地南
S090400093100200,平出工業団地南,S0904000931,平出工業団地南
S0904000932,クボタ空調前,S0904000932,クボタ空調前
S090400093200100,クボタ空調前,S0904000932,クボタ空調前
S090400093200200,クボタ空調前,S0904000932,クボタ空調前
S0904000933,御幸交番前,S0904000933,御幸交番前
S090400093300100,御幸交番前,S0904000933,御幸交番前
S090400093300200,御幸交番前,S0904000933,御幸交番前
S090400093300300,御幸交番前,S0904000933,御幸交番前
S0904000934,栃木県ＪＡビル前,S0904000934,栃木県ＪＡビル前
S090400093400100,栃木県ＪＡビル前,S0904000934,栃木県ＪＡビル前
S090400093400200,栃木県ＪＡビル前,S0904000934,栃木県ＪＡビル前
S0904000935,コカ・コーラ前,S0904000935,コカ・コーラ前
S090400093500100,コカ・コーラ前,S0904000935,コカ・コーラ前
S090400093500200,コカ・コーラ前,S0904000935,コカ・コーラ前
S0904000936,三菱製鋼,S0904000936,三菱製鋼
S090400093600100,三菱製鋼,S0904000936,三菱製鋼
S090400093600200,三菱製鋼,S0904000936,三菱製鋼
S0904000937,岡本南台,S0904000937,岡本南台
S090400093700100,岡本南台,S0904000937,岡本南台
S090400093700200,岡本南台,S0904000937,岡本南台
S0904000939,宇都宮東武,S0904000939,宇都宮東武
S090400093900100,宇都宮東武,S0904000939,宇都宮東武
S090400093900200,宇都宮東武,S0904000939,宇都宮東武
S090400093900300,宇都宮東武,S0904000939,宇都宮東武
S090400093900400,宇都宮東武,S0904000939,宇都宮東武
S0904000940,二荒山神社前,S0904000940,二荒山神社前
S090400094000100,二荒山神社前,S0904000940,二荒山神社前
S090400094000200,二荒山神社前,S0904000940,二荒山神社前
S0904000946,御幸ヶ原南,S0904000946,御幸ヶ原南
S090400094600100,御幸ヶ原南,S0904000946,御幸ヶ原南
S090400094600200,御幸ヶ原南,S0904000946,御幸ヶ原南
S0904000947,御幸ヶ原元町,S0904000947,御幸ヶ原元町
S090400094700100,御幸ヶ原元町,S0904000947,御幸ヶ原元町
S090400094700200,御幸ヶ原元町,S0904000947,御幸ヶ原元町
S0904000948,スーパーオータニ前,S0904000948,スーパーオータニ前
S090400094800100,スーパーオータニ前,S0904000948,スーパーオータニ前
S090400094800200,スーパーオータニ前,S0904000948,スーパーオータニ前
S0904000952,宇都宮病院前,S0904000952,宇都宮病院前
S090400095200100,宇都宮病院前,S0904000952,宇都宮病院前
S090400095200200,宇都宮病院前,S0904000952,宇都宮病院前
S0904000953,仲町［鹿沼市］,S0904000953,仲町［鹿沼市］
S090400095300100,仲町［鹿沼市］,S0904000953,仲町［鹿沼市］
S090400095300200,仲町［鹿沼市］,S0904000953,仲町［鹿沼市］
S0904000954,寺町［鹿沼市］,S0904000954,寺町［鹿沼市］
S090400095400100,寺町［鹿沼市］,S0904000954,寺町［鹿沼市］
S090400095400200,寺町［鹿沼市］,S0904000954,寺町［鹿沼市］
S0904000955,氏家駅前,S0904000955,氏家駅前
S090400095500100,氏家駅前,S0904000955,氏家駅前
S0904000956,氏家上町,S0904000956,氏家上町
S090400095600100,氏家上町,S0904000956,氏家上町
S090400095600200,氏家上町,S0904000956,氏家上町
S0904000957,桜野西町,S0904000957,桜野西町
S090400095700100,桜野西町,S0904000957,桜野西町
S090400095700200,桜野西町,S0904000957,桜野西町
S090400095700300,桜野西町,S0904000957,桜野西町
S090400095700400,桜野西町,S0904000957,桜野西町
S0904000958,桜野東町,S0904000958,桜野東町
S090400095800100,桜野東町,S0904000958,桜野東町
S090400095800200,桜野東町,S0904000958,桜野東町
S0904000959,氏家農協前,S0904000959,氏家農協前
S090400095900100,氏家農協前,S0904000959,氏家農協前
S090400095900200,氏家農協前,S0904000959,氏家農協前
S0904000960,旭町［さくら市］,S0904000960,旭町［さくら市］
S090400096000100,旭町［さくら市］,S0904000960,旭町［さくら市］
S090400096000200,旭町［さくら市］,S0904000960,旭町［さくら市］
S0904000961,並木,S0904000961,並木
S090400096100100,並木,S0904000961,並木
S090400096100200,並木,S0904000961,並木
S0904000962,松山,S0904000962,松山
S090400096200100,松山,S0904000962,松山
S090400096200200,松山,S0904000962,松山
S0904000963,谷中入口,S0904000963,谷中入口
S090400096300100,谷中入口,S0904000963,谷中入口
S090400096300200,谷中入口,S0904000963,谷中入口
S0904000964,松山東,S0904000964,松山東
S090400096400100,松山東,S0904000964,松山東
S090400096400200,松山東,S0904000964,松山東
S0904000965,根本入口,S0904000965,根本入口
S090400096500100,根本入口,S0904000965,根本入口
S090400096500200,根本入口,S0904000965,根本入口
S0904000966,御嶽神社前,S0904000966,御嶽神社前
S090400096600100,御嶽神社前,S0904000966,御嶽神社前
S090400096600200,御嶽神社前,S0904000966,御嶽神社前
S0904000967,連城橋,S0904000967,連城橋
S090400096700100,連城橋,S0904000967,連城橋
S090400096700200,連城橋,S0904000967,連城橋
S0904000968,喜連川本町,S0904000968,喜連川本町
S090400096800100,喜連川本町,S0904000968,喜連川本町
S090400096800200,喜連川本町,S0904000968,喜連川本町
S090400096800300,喜連川本町,S0904000968,喜連川本町
S090400096800400,喜連川本町,S0904000968,喜連川本町
S0904000969,喜連川役場前,S0904000969,喜連川役場前
S090400096900100,喜連川役場前,S0904000969,喜連川役場前
S090400096900200,喜連川役場前,S0904000969,喜連川役場前
S0904000970,仲町［さくら市］,S0904000970,仲町［さくら市］
S090400097000100,仲町［さくら市］,S0904000970,仲町［さくら市］
S090400097000200,仲町［さくら市］,S0904000970,仲町［さくら市］
S0904000971,寿町,S0904000971,寿町
S090400097100100,寿町,S0904000971,寿町
S090400097100200,寿町,S0904000971,寿町
S0904000972,ひばりヶ丘入口,S0904000972,ひばりヶ丘入口
S090400097200100,ひばりヶ丘入口,S0904000972,ひばりヶ丘入口
S090400097200200,ひばりヶ丘入口,S0904000972,ひばりヶ丘入口
S0904000973,中学校入口［喜連川中］,S0904000973,中学校入口［喜連川中］
S090400097300100,中学校入口［喜連川中］,S0904000973,中学校入口［喜連川中］
S090400097300200,中学校入口［喜連川中］,S0904000973,中学校入口［喜連川中］
S0904000974,フィオーレガーデン前,S0904000974,フィオーレガーデン前
S090400097400100,フィオーレガーデン前,S0904000974,フィオーレガーデン前
S090400097400200,フィオーレガーデン前,S0904000974,フィオーレガーデン前
S0904000975,フィオーレ中央,S0904000975,フィオーレ中央
S090400097500100,フィオーレ中央,S0904000975,フィオーレ中央
S090400097500200,フィオーレ中央,S0904000975,フィオーレ中央
S0904000976,フィオーレ北,S0904000976,フィオーレ北
S090400097600100,フィオーレ北,S0904000976,フィオーレ北
S090400097600200,フィオーレ北,S0904000976,フィオーレ北
S0904000977,さくら野公園前,S0904000977,さくら野公園前
S090400097700100,さくら野公園前,S0904000977,さくら野公園前
S090400097700200,さくら野公園前,S0904000977,さくら野公園前
S0904000978,びゅうフォレスト中央,S0904000978,びゅうフォレスト中央
S090400097800100,びゅうフォレスト中央,S0904000978,びゅうフォレスト中央
S090400097800200,びゅうフォレスト中央,S0904000978,びゅうフォレスト中央
S0904000979,びゅうフォレスト北,S0904000979,びゅうフォレスト北
S090400097900100,びゅうフォレスト北,S0904000979,びゅうフォレスト北
S090400097900200,びゅうフォレスト北,S0904000979,びゅうフォレスト北
S0904000980,簗瀬,S0904000980,簗瀬
S090400098000100,簗瀬,S0904000980,簗瀬
S090400098000200,簗瀬,S0904000980,簗瀬
S0904000981,宿郷東,S0904000981,宿郷東
S090400098100100,宿郷東,S0904000981,宿郷東
S090400098100200,宿郷東,S0904000981,宿郷東
S090400098100201,宿郷東,S0904000981,宿郷東
S0904000982,平松町,S0904000982,平松町
S090400098200100,平松町,S0904000982,平松町
S090400098200200,平松町,S0904000982,平松町
S090400098200201,平松町,S0904000982,平松町
S0904000983,工学部西,S0904000983,工学部西
S090400098300100,工学部西,S0904000983,工学部西
S090400098300200,工学部西,S0904000983,工学部西
S090400098300101,工学部西,S0904000983,工学部西
S090400098300201,工学部西,S0904000983,工学部西
S0904000984,西原車庫,S0904000984,西原車庫
S090400098400100,西原車庫,S0904000984,西原車庫
S0904000985,桜馬場通り十文字,S0904000985,桜馬場通り十文字
S090400098500100,桜馬場通り十文字,S0904000985,桜馬場通り十文字
S090400098500200,桜馬場通り十文字,S0904000985,桜馬場通り十文字
S0904000986,西原三丁目,S0904000986,西原三丁目
S090400098600100,西原三丁目,S0904000986,西原三丁目
S090400098600200,西原三丁目,S0904000986,西原三丁目
S0904000987,西原小学校入口,S0904000987,西原小学校入口
S090400098700100,西原小学校入口,S0904000987,西原小学校入口
S090400098700200,西原小学校入口,S0904000987,西原小学校入口
S0904000988,もみじ通り入口,S0904000988,もみじ通り入口
S090400098800100,もみじ通り入口,S0904000988,もみじ通り入口
S090400098800200,もみじ通り入口,S0904000988,もみじ通り入口
S0904000989,西二丁目公園前,S0904000989,西二丁目公園前
S090400098900100,西二丁目公園前,S0904000989,西二丁目公園前
S090400098900200,西二丁目公園前,S0904000989,西二丁目公園前
S0904000990,住吉町［日光市］,S0904000990,住吉町［日光市］
S090400099000100,住吉町［日光市］,S0904000990,住吉町［日光市］
S0904000992,上町［下野市］,S0904000992,上町［下野市］
S090400099200100,上町［下野市］,S0904000992,上町［下野市］
S090400099200200,上町［下野市］,S0904000992,上町［下野市］
S0904000993,文化会館前［宇都宮市］,S0904000993,文化会館前［宇都宮市］
S090400099300100,文化会館前［宇都宮市］,S0904000993,文化会館前［宇都宮市］
S090400099300200,文化会館前［宇都宮市］,S0904000993,文化会館前［宇都宮市］
S0904000994,東宿郷三丁目,S0904000994,東宿郷三丁目
S090400099400100,東宿郷三丁目,S0904000994,東宿郷三丁目
S090400099400200,東宿郷三丁目,S0904000994,東宿郷三丁目
S090400099400201,東宿郷三丁目,S0904000994,東宿郷三丁目
S0904000995,宿郷五丁目,S0904000995,宿郷五丁目
S090400099500100,宿郷五丁目,S0904000995,宿郷五丁目
S090400099500200,宿郷五丁目,S0904000995,宿郷五丁目
S090400099500201,宿郷五丁目,S0904000995,宿郷五丁目
S0904000996,簗瀬町十文字,S0904000996,簗瀬町十文字
S090400099600100,簗瀬町十文字,S0904000996,簗瀬町十文字
S090400099600200,簗瀬町十文字,S0904000996,簗瀬町十文字
S0904000997,城東小学校,S0904000997,城東小学校
S090400099700100,城東小学校,S0904000997,城東小学校
S090400099700200,城東小学校,S0904000997,城東小学校
S0904000998,簗瀬五丁目東,S0904000998,簗瀬五丁目東
S090400099800100,簗瀬五丁目東,S0904000998,簗瀬五丁目東
S090400099800200,簗瀬五丁目東,S0904000998,簗瀬五丁目東
S0904000999,平松西,S0904000999,平松西
S090400099900100,平松西,S0904000999,平松西
S090400099900200,平松西,S0904000999,平松西
S0904001000,平松本町西,S0904001000,平松本町西
S090400100000100,平松本町西,S0904001000,平松本町西
S090400100000200,平松本町西,S0904001000,平松本町西
S0904001001,つなかわ歯科前,S0904001001,つなかわ歯科前
S090400100100100,つなかわ歯科前,S0904001001,つなかわ歯科前
S0904001002,県営平松本町住宅入口,S0904001002,県営平松本町住宅入口
S090400100200100,県営平松本町住宅入口,S0904001002,県営平松本町住宅入口
S0904001003,県営平松本町住宅前,S0904001003,県営平松本町住宅前
S090400100300100,県営平松本町住宅前,S0904001003,県営平松本町住宅前
S0904001004,平松本町公民館,S0904001004,平松本町公民館
S090400100400100,平松本町公民館,S0904001004,平松本町公民館
S0904001005,男山稲荷神社北,S0904001005,男山稲荷神社北
S090400100500100,男山稲荷神社北,S0904001005,男山稲荷神社北
S0904001006,あさひの保育園南,S0904001006,あさひの保育園南
S090400100600100,あさひの保育園南,S0904001006,あさひの保育園南
S0904001007,烏山信金前,S0904001007,烏山信金前
S090400100700100,烏山信金前,S0904001007,烏山信金前
S0904001008,ベニマル前,S0904001008,ベニマル前
S090400100800100,ベニマル前,S0904001008,ベニマル前
S0904001009,岡新田,S0904001009,岡新田
S090400100900100,岡新田,S0904001009,岡新田
S090400100900200,岡新田,S0904001009,岡新田
S0904001010,岡西,S0904001010,岡西
S090400101000100,岡西,S0904001010,岡西
S090400101000200,岡西,S0904001010,岡西
S0904001011,岡［十字路］,S0904001011,岡［十字路］
S090400101100100,岡［十字路］,S0904001011,岡［十字路］
S090400101100200,岡［十字路］,S0904001011,岡［十字路］
S0904001012,石井局前,S0904001012,石井局前
S090400101200100,石井局前,S0904001012,石井局前
S090400101200200,石井局前,S0904001012,石井局前
S0904001013,鬼怒橋東,S0904001013,鬼怒橋東
S090400101300100,鬼怒橋東,S0904001013,鬼怒橋東
S090400101300200,鬼怒橋東,S0904001013,鬼怒橋東
S0904001014,鬼怒大島,S0904001014,鬼怒大島
S090400101400100,鬼怒大島,S0904001014,鬼怒大島
S090400101400200,鬼怒大島,S0904001014,鬼怒大島
S0904001015,鐺山河原,S0904001015,鐺山河原
S090400101500100,鐺山河原,S0904001015,鐺山河原
S090400101500200,鐺山河原,S0904001015,鐺山河原
S0904001016,鐺山十字路,S0904001016,鐺山十字路
S090400101600100,鐺山十字路,S0904001016,鐺山十字路
S090400101600200,鐺山十字路,S0904001016,鐺山十字路
S0904001017,鐺山東,S0904001017,鐺山東
S090400101700100,鐺山東,S0904001017,鐺山東
S090400101700200,鐺山東,S0904001017,鐺山東
S0904001018,松原［宇都宮市］,S0904001018,松原［宇都宮市］
S090400101800100,松原［宇都宮市］,S0904001018,松原［宇都宮市］
S090400101800200,松原［宇都宮市］,S0904001018,松原［宇都宮市］
S090400101800300,松原［宇都宮市］,S0904001018,松原［宇都宮市］
S090400101800400,松原［宇都宮市］,S0904001018,松原［宇都宮市］
S0904001019,栃農大前,S0904001019,栃農大前
S090400101900100,栃農大前,S0904001019,栃農大前
S090400101900200,栃農大前,S0904001019,栃農大前
S0904001020,西中台,S0904001020,西中台
S090400102000100,西中台,S0904001020,西中台
S090400102000200,西中台,S0904001020,西中台
S0904001021,氷室,S0904001021,氷室
S090400102100100,氷室,S0904001021,氷室
S090400102100200,氷室,S0904001021,氷室
S0904001022,芳賀中妻,S0904001022,芳賀中妻
S090400102200100,芳賀中妻,S0904001022,芳賀中妻
S090400102200200,芳賀中妻,S0904001022,芳賀中妻
S0904001023,中台,S0904001023,中台
S090400102300100,中台,S0904001023,中台
S090400102300200,中台,S0904001023,中台
S0904001024,東舟戸,S0904001024,東舟戸
S090400102400100,東舟戸,S0904001024,東舟戸
S090400102400200,東舟戸,S0904001024,東舟戸
S0904001025,西水沼,S0904001025,西水沼
S090400102500100,西水沼,S0904001025,西水沼
S090400102500200,西水沼,S0904001025,西水沼
S0904001026,橋場,S0904001026,橋場
S090400102600100,橋場,S0904001026,橋場
S090400102600200,橋場,S0904001026,橋場
S0904001027,下与能,S0904001027,下与能
S090400102700100,下与能,S0904001027,下与能
S090400102700200,下与能,S0904001027,下与能
S0904001028,東高橋,S0904001028,東高橋
S090400102800100,東高橋,S0904001028,東高橋
S090400102800200,東高橋,S0904001028,東高橋
S0904001029,高橋神社前,S0904001029,高橋神社前
S090400102900100,高橋神社前,S0904001029,高橋神社前
S090400102900200,高橋神社前,S0904001029,高橋神社前
S0904001030,大畑東,S0904001030,大畑東
S090400103000100,大畑東,S0904001030,大畑東
S090400103000200,大畑東,S0904001030,大畑東
S0904001031,下赤羽,S0904001031,下赤羽
S090400103100100,下赤羽,S0904001031,下赤羽
S090400103100200,下赤羽,S0904001031,下赤羽
S0904001032,赤羽小学校前,S0904001032,赤羽小学校前
S090400103200100,赤羽小学校前,S0904001032,赤羽小学校前
S090400103200200,赤羽小学校前,S0904001032,赤羽小学校前
S0904001033,鴻の宿,S0904001033,鴻の宿
S090400103300100,鴻の宿,S0904001033,鴻の宿
S090400103300200,鴻の宿,S0904001033,鴻の宿
S0904001034,芳賀衛生組合前,S0904001034,芳賀衛生組合前
S090400103400100,芳賀衛生組合前,S0904001034,芳賀衛生組合前
S090400103400200,芳賀衛生組合前,S0904001034,芳賀衛生組合前
S0904001035,台町西,S0904001035,台町西
S090400103500100,台町西,S0904001035,台町西
S090400103500200,台町西,S0904001035,台町西
S0904001036,星の宮入口,S0904001036,星の宮入口
S090400103600100,星の宮入口,S0904001036,星の宮入口
S090400103600200,星の宮入口,S0904001036,星の宮入口
S0904001037,七井台町,S0904001037,七井台町
S090400103700100,七井台町,S0904001037,七井台町
S090400103700200,七井台町,S0904001037,七井台町
S0904001038,七井下町,S0904001038,七井下町
S090400103800100,七井下町,S0904001038,七井下町
S090400103800200,七井下町,S0904001038,七井下町
S0904001039,七井駅前,S0904001039,七井駅前
S090400103900100,七井駅前,S0904001039,七井駅前
S090400103900200,七井駅前,S0904001039,七井駅前
S0904001040,七井仲町,S0904001040,七井仲町
S090400104000100,七井仲町,S0904001040,七井仲町
S090400104000200,七井仲町,S0904001040,七井仲町
S0904001041,七井局前,S0904001041,七井局前
S090400104100100,七井局前,S0904001041,七井局前
S090400104100200,七井局前,S0904001041,七井局前
S0904001042,風戸,S0904001042,風戸
S090400104200100,風戸,S0904001042,風戸
S090400104200200,風戸,S0904001042,風戸
S0904001043,京塚,S0904001043,京塚
S090400104300100,京塚,S0904001043,京塚
S090400104300200,京塚,S0904001043,京塚
S0904001044,北中,S0904001044,北中
S090400104400100,北中,S0904001044,北中
S090400104400200,北中,S0904001044,北中
S0904001045,北益子,S0904001045,北益子
S090400104500100,北益子,S0904001045,北益子
S090400104500200,北益子,S0904001045,北益子
S0904001046,益子町民センター前,S0904001046,益子町民センター前
S090400104600100,益子町民センター前,S0904001046,益子町民センター前
S090400104600200,益子町民センター前,S0904001046,益子町民センター前
S0904001047,益子中学校前,S0904001047,益子中学校前
S090400104700100,益子中学校前,S0904001047,益子中学校前
S090400104700200,益子中学校前,S0904001047,益子中学校前
S0904001048,栗崎,S0904001048,栗崎
S090400104800100,栗崎,S0904001048,栗崎
S090400104800200,栗崎,S0904001048,栗崎
S0904001049,道祖土下,S0904001049,道祖土下
S090400104900100,道祖土下,S0904001049,道祖土下
S090400104900200,道祖土下,S0904001049,道祖土下
S0904001050,益子参考館入口,S0904001050,益子参考館入口
S090400105000100,益子参考館入口,S0904001050,益子参考館入口
S090400105000200,益子参考館入口,S0904001050,益子参考館入口
S0904001051,道祖土上,S0904001051,道祖土上
S090400105100100,道祖土上,S0904001051,道祖土上
S090400105100200,道祖土上,S0904001051,道祖土上
S0904001052,陶芸メッセ入口,S0904001052,陶芸メッセ入口
S090400105200100,陶芸メッセ入口,S0904001052,陶芸メッセ入口
S090400105200200,陶芸メッセ入口,S0904001052,陶芸メッセ入口
S0904001053,城内坂,S0904001053,城内坂
S090400105300100,城内坂,S0904001053,城内坂
S090400105300200,城内坂,S0904001053,城内坂
S0904001054,内町,S0904001054,内町
S090400105400100,内町,S0904001054,内町
S090400105400200,内町,S0904001054,内町
S0904001055,田町［益子市］,S0904001055,田町［益子市］
S090400105500100,田町［益子市］,S0904001055,田町［益子市］
S090400105500200,田町［益子市］,S0904001055,田町［益子市］
S0904001056,鹿島神社前,S0904001056,鹿島神社前
S090400105600100,鹿島神社前,S0904001056,鹿島神社前
S090400105600200,鹿島神社前,S0904001056,鹿島神社前
S0904001057,益子新町,S0904001057,益子新町
S090400105700100,益子新町,S0904001057,益子新町
S090400105700200,益子新町,S0904001057,益子新町
S0904001058,益子駅前,S0904001058,益子駅前
S090400105800100,益子駅前,S0904001058,益子駅前
S0904001059,今泉町東,S0904001059,今泉町東
S090400105900300,今泉町東,S0904001059,今泉町東
S090400105900400,今泉町東,S0904001059,今泉町東
S0904001060,今泉新町,S0904001060,今泉新町
S090400106000100,今泉新町,S0904001060,今泉新町
S090400106000200,今泉新町,S0904001060,今泉新町
S0904001061,東町［宇都宮市］,S0904001061,東町［宇都宮市］
S090400106100100,東町［宇都宮市］,S0904001061,東町［宇都宮市］
S090400106100200,東町［宇都宮市］,S0904001061,東町［宇都宮市］
S0904001062,南御幸町,S0904001062,南御幸町
S090400106200100,南御幸町,S0904001062,南御幸町
S090400106200200,南御幸町,S0904001062,南御幸町
S0904001063,中御幸町,S0904001063,中御幸町
S090400106300100,中御幸町,S0904001063,中御幸町
S090400106300200,中御幸町,S0904001063,中御幸町
S0904001066,宇都宮リハビリテーション,S0904001066,宇都宮リハビリテーション
S090400106600100,宇都宮リハビリテーション,S0904001066,宇都宮リハビリテーション
S090400106600200,宇都宮リハビリテーション,S0904001066,宇都宮リハビリテーション
S0904001067,ヨークベニマル前,S0904001067,ヨークベニマル前
S090400106700100,ヨークベニマル前,S0904001067,ヨークベニマル前
S090400106700200,ヨークベニマル前,S0904001067,ヨークベニマル前
S0904001068,上野団地,S0904001068,上野団地
S090400106800100,上野団地,S0904001068,上野団地
S090400106800200,上野団地,S0904001068,上野団地
S0904001069,公民館前［上野町］,S0904001069,公民館前［上野町］
S090400106900100,公民館前［上野町］,S0904001069,公民館前［上野町］
S090400106900200,公民館前［上野町］,S0904001069,公民館前［上野町］
S0904001070,公園前［宇都宮市］,S0904001070,公園前［宇都宮市］
S090400107000100,公園前［宇都宮市］,S0904001070,公園前［宇都宮市］
S090400107000200,公園前［宇都宮市］,S0904001070,公園前［宇都宮市］
S0904001071,宇都宮病院東,S0904001071,宇都宮病院東
S090400107100100,宇都宮病院東,S0904001071,宇都宮病院東
S090400107100200,宇都宮病院東,S0904001071,宇都宮病院東
S0904001072,保健環境センター前,S0904001072,保健環境センター前
S090400107200100,保健環境センター前,S0904001072,保健環境センター前
S090400107200200,保健環境センター前,S0904001072,保健環境センター前
S0904001073,ＪＲ岡本駅西口,S0904001073,ＪＲ岡本駅西口
S090400107300100,ＪＲ岡本駅西口,S0904001073,ＪＲ岡本駅西口
S0904001076,御幸ヶ原児童公園前,S0904001076,御幸ヶ原児童公園前
S090400107600100,御幸ヶ原児童公園前,S0904001076,御幸ヶ原児童公園前
S090400107600200,御幸ヶ原児童公園前,S0904001076,御幸ヶ原児童公園前
S0904001077,宇大南,S0904001077,宇大南
S090400107700100,宇大南,S0904001077,宇大南
S090400107700200,宇大南,S0904001077,宇大南
S0904001078,峰町南,S0904001078,峰町南
S090400107800100,峰町南,S0904001078,峰町南
S090400107800200,峰町南,S0904001078,峰町南
S0904001079,平松本町,S0904001079,平松本町
S090400107900100,平松本町,S0904001079,平松本町
S090400107900200,平松本町,S0904001079,平松本町
S0904001080,ミツトヨ営業センター前,S0904001080,ミツトヨ営業センター前
S090400108000100,ミツトヨ営業センター前,S0904001080,ミツトヨ営業センター前
S090400108000200,ミツトヨ営業センター前,S0904001080,ミツトヨ営業センター前
S0904001081,ミツトヨ東,S0904001081,ミツトヨ東
S090400108100100,ミツトヨ東,S0904001081,ミツトヨ東
S090400108100200,ミツトヨ東,S0904001081,ミツトヨ東
S0904001082,卸団地西,S0904001082,卸団地西
S090400108200100,卸団地西,S0904001082,卸団地西
S090400108200200,卸団地西,S0904001082,卸団地西
S0904001084,卸団地入口,S0904001084,卸団地入口
S090400108400100,卸団地入口,S0904001084,卸団地入口
S090400108400200,卸団地入口,S0904001084,卸団地入口
S0904001085,三の久保,S0904001085,三の久保
S090400108500100,三の久保,S0904001085,三の久保
S090400108500200,三の久保,S0904001085,三の久保
S0904001086,卸団地東,S0904001086,卸団地東
S090400108600100,卸団地東,S0904001086,卸団地東
S090400108600200,卸団地東,S0904001086,卸団地東
S0904001087,月見ヶ丘児童公園,S0904001087,月見ヶ丘児童公園
S090400108700100,月見ヶ丘児童公園,S0904001087,月見ヶ丘児童公園
S090400108700200,月見ヶ丘児童公園,S0904001087,月見ヶ丘児童公園
S0904001088,東峰町,S0904001088,東峰町
S090400108800100,東峰町,S0904001088,東峰町
S090400108800200,東峰町,S0904001088,東峰町
S0904001089,東峰町西,S0904001089,東峰町西
S090400108900100,東峰町西,S0904001089,東峰町西
S090400108900200,東峰町西,S0904001089,東峰町西
S0904001090,三井寺,S0904001090,三井寺
S090400109000100,三井寺,S0904001090,三井寺
S090400109000200,三井寺,S0904001090,三井寺
S0904001091,平石小学校前,S0904001091,平石小学校前
S090400109100100,平石小学校前,S0904001091,平石小学校前
S090400109100200,平石小学校前,S0904001091,平石小学校前
S0904001092,今宿,S0904001092,今宿
S090400109200100,今宿,S0904001092,今宿
S090400109200200,今宿,S0904001092,今宿
S0904001093,前俵,S0904001093,前俵
S090400109300100,前俵,S0904001093,前俵
S090400109300200,前俵,S0904001093,前俵
S0904001094,金田橋,S0904001094,金田橋
S090400109400100,金田橋,S0904001094,金田橋
S090400109400200,金田橋,S0904001094,金田橋
S0904001096,中島［宇都宮市］,S0904001096,中島［宇都宮市］
S090400109600100,中島［宇都宮市］,S0904001096,中島［宇都宮市］
S090400109600200,中島［宇都宮市］,S0904001096,中島［宇都宮市］
S0904001097,堀の内［宇都宮市］,S0904001097,堀の内［宇都宮市］
S090400109700100,堀の内［宇都宮市］,S0904001097,堀の内［宇都宮市］
S090400109700200,堀の内［宇都宮市］,S0904001097,堀の内［宇都宮市］
S0904001102,東警察署南,S0904001102,東警察署南
S090400110200100,東警察署南,S0904001102,東警察署南
S090400110200200,東警察署南,S0904001102,東警察署南
S0904001103,バイパス東,S0904001103,バイパス東
S090400110300100,バイパス東,S0904001103,バイパス東
S090400110300200,バイパス東,S0904001103,バイパス東
S0904001104,越戸二丁目,S0904001104,越戸二丁目
S090400110400100,越戸二丁目,S0904001104,越戸二丁目
S090400110400200,越戸二丁目,S0904001104,越戸二丁目
S0904001105,北越戸町,S0904001105,北越戸町
S090400110500100,北越戸町,S0904001105,北越戸町
S090400110500200,北越戸町,S0904001105,北越戸町
S0904001107,中央町,S0904001107,中央町
S090400110700100,中央町,S0904001107,中央町
S090400110700200,中央町,S0904001107,中央町
S0904001108,宮町,S0904001108,宮町
S090400110800100,宮町,S0904001108,宮町
S090400110800200,宮町,S0904001108,宮町
S0904001109,晩翠橋,S0904001109,晩翠橋
S090400110900100,晩翠橋,S0904001109,晩翠橋
S090400110900200,晩翠橋,S0904001109,晩翠橋
S0904001110,那珂川,S0904001110,那珂川
S090400111000100,那珂川,S0904001110,那珂川
S090400111000200,那珂川,S0904001110,那珂川
S0904001111,新高久,S0904001111,新高久
S090400111100100,新高久,S0904001111,新高久
S090400111100200,新高久,S0904001111,新高久
S0904001112,腰掛松,S0904001112,腰掛松
S090400111200100,腰掛松,S0904001112,腰掛松
S090400111200200,腰掛松,S0904001112,腰掛松
S0904001113,下松子,S0904001113,下松子
S090400111300100,下松子,S0904001113,下松子
S090400111300200,下松子,S0904001113,下松子
S0904001114,上松子,S0904001114,上松子
S090400111400100,上松子,S0904001114,上松子
S090400111400200,上松子,S0904001114,上松子
S0904001115,お菓子の城,S0904001115,お菓子の城
S090400111500100,お菓子の城,S0904001115,お菓子の城
S090400111500200,お菓子の城,S0904001115,お菓子の城
S0904001123,池田,S0904001123,池田
S090400112300100,池田,S0904001123,池田
S090400112300200,池田,S0904001123,池田
S0904001125,那須ステンドグラス美術館,S0904001125,那須ステンドグラス美術館
S090400112500100,那須ステンドグラス美術館,S0904001125,那須ステンドグラス美術館
S090400112500200,那須ステンドグラス美術館,S0904001125,那須ステンドグラス美術館
S0904001127,一軒茶屋,S0904001127,一軒茶屋
S090400112700100,一軒茶屋,S0904001127,一軒茶屋
S090400112700200,一軒茶屋,S0904001127,一軒茶屋
S090400112700300,一軒茶屋,S0904001127,一軒茶屋
S090400112700201,一軒茶屋,S0904001127,一軒茶屋
S090400112700400,一軒茶屋,S0904001127,一軒茶屋
S0904001128,藤城清治美術館入口,S0904001128,藤城清治美術館入口
S090400112800100,藤城清治美術館入口,S0904001128,藤城清治美術館入口
S090400112800200,藤城清治美術館入口,S0904001128,藤城清治美術館入口
S0904001129,南ヶ丘牧場,S0904001129,南ヶ丘牧場
S090400112900100,南ヶ丘牧場,S0904001129,南ヶ丘牧場
S090400112900200,南ヶ丘牧場,S0904001129,南ヶ丘牧場
S0904001134,三沢台,S0904001134,三沢台
S090400113400100,三沢台,S0904001134,三沢台
S090400113400200,三沢台,S0904001134,三沢台
S0904001135,三沢台４号通り,S0904001135,三沢台４号通り
S090400113500100,三沢台４号通り,S0904001135,三沢台４号通り
S090400113500200,三沢台４号通り,S0904001135,三沢台４号通り
S0904001136,遅山１０号通り,S0904001136,遅山１０号通り
S090400113600100,遅山１０号通り,S0904001136,遅山１０号通り
S090400113600200,遅山１０号通り,S0904001136,遅山１０号通り
S0904001137,遅山１４号通り,S0904001137,遅山１４号通り
S090400113700100,遅山１４号通り,S0904001137,遅山１４号通り
S090400113700200,遅山１４号通り,S0904001137,遅山１４号通り
S0904001138,遅山橋,S0904001138,遅山橋
S090400113800100,遅山橋,S0904001138,遅山橋
S090400113800200,遅山橋,S0904001138,遅山橋
S0904001139,那須ハイランドパーク,S0904001139,那須ハイランドパーク
S090400113900100,那須ハイランドパーク,S0904001139,那須ハイランドパーク
S0904001140,田代,S0904001140,田代
S090400114000100,田代,S0904001140,田代
S090400114000200,田代,S0904001140,田代
S0904001141,チーズガーデン前,S0904001141,チーズガーデン前
S090400114100100,チーズガーデン前,S0904001141,チーズガーデン前
S090400114100200,チーズガーデン前,S0904001141,チーズガーデン前
S0904001142,上白沢橋,S0904001142,上白沢橋
S090400114200100,上白沢橋,S0904001142,上白沢橋
S090400114200200,上白沢橋,S0904001142,上白沢橋
S0904001143,友愛の森,S0904001143,友愛の森
S090400114300100,友愛の森,S0904001143,友愛の森
S090400114300200,友愛の森,S0904001143,友愛の森
S0904001144,広谷地,S0904001144,広谷地
S090400114400100,広谷地,S0904001144,広谷地
S090400114400200,広谷地,S0904001144,広谷地
S0904001145,新屋,S0904001145,新屋
S090400114500100,新屋,S0904001145,新屋
S090400114500200,新屋,S0904001145,新屋
S0904001146,上新屋,S0904001146,上新屋
S090400114600100,上新屋,S0904001146,上新屋
S090400114600200,上新屋,S0904001146,上新屋
S0904001147,那須サファリパーク入口,S0904001147,那須サファリパーク入口
S090400114700100,那須サファリパーク入口,S0904001147,那須サファリパーク入口
S090400114700200,那須サファリパーク入口,S0904001147,那須サファリパーク入口
S0904001148,守子坂,S0904001148,守子坂
S090400114800100,守子坂,S0904001148,守子坂
S090400114800200,守子坂,S0904001148,守子坂
S0904001149,ジョイア・ミーア前,S0904001149,ジョイア・ミーア前
S090400114900100,ジョイア・ミーア前,S0904001149,ジョイア・ミーア前
S090400114900200,ジョイア・ミーア前,S0904001149,ジョイア・ミーア前
S0904001150,高湯入口,S0904001150,高湯入口
S090400115000100,高湯入口,S0904001150,高湯入口
S090400115000200,高湯入口,S0904001150,高湯入口
S0904001151,那須高原保育園入口,S0904001151,那須高原保育園入口
S090400115100100,那須高原保育園入口,S0904001151,那須高原保育園入口
S090400115100200,那須高原保育園入口,S0904001151,那須高原保育園入口
S0904001152,寿楽本店前,S0904001152,寿楽本店前
S090400115200100,寿楽本店前,S0904001152,寿楽本店前
S090400115200200,寿楽本店前,S0904001152,寿楽本店前
S0904001153,山水閣入口,S0904001153,山水閣入口
S090400115300100,山水閣入口,S0904001153,山水閣入口
S090400115300200,山水閣入口,S0904001153,山水閣入口
S090400115300201,山水閣入口,S0904001153,山水閣入口
S0904001154,新那須,S0904001154,新那須
S090400115400100,新那須,S0904001154,新那須
S090400115400200,新那須,S0904001154,新那須
S090400115400201,新那須,S0904001154,新那須
S0904001155,仲町［那須町］,S0904001155,仲町［那須町］
S090400115500100,仲町［那須町］,S0904001155,仲町［那須町］
S090400115500200,仲町［那須町］,S0904001155,仲町［那須町］
S0904001156,湯本旭町,S0904001156,湯本旭町
S090400115600100,湯本旭町,S0904001156,湯本旭町
S090400115600200,湯本旭町,S0904001156,湯本旭町
S0904001157,湯本１丁目,S0904001157,湯本１丁目
S090400115700100,湯本１丁目,S0904001157,湯本１丁目
S090400115700200,湯本１丁目,S0904001157,湯本１丁目
S0904001158,湯本２丁目,S0904001158,湯本２丁目
S090400115800100,湯本２丁目,S0904001158,湯本２丁目
S090400115800200,湯本２丁目,S0904001158,湯本２丁目
S0904001159,那須湯本温泉,S0904001159,那須湯本温泉
S090400115900100,那須湯本温泉,S0904001159,那須湯本温泉
S090400115900200,那須湯本温泉,S0904001159,那須湯本温泉
S0904001160,ビジターセンター入口,S0904001160,ビジターセンター入口
S090400116000100,ビジターセンター入口,S0904001160,ビジターセンター入口
S090400116000200,ビジターセンター入口,S0904001160,ビジターセンター入口
S0904001161,つつじ吊橋入口,S0904001161,つつじ吊橋入口
S090400116100100,つつじ吊橋入口,S0904001161,つつじ吊橋入口
S090400116100200,つつじ吊橋入口,S0904001161,つつじ吊橋入口
S0904001162,おだん上,S0904001162,おだん上
S090400116200100,おだん上,S0904001162,おだん上
S0904001163,恋人の聖地,S0904001163,恋人の聖地
S090400116300100,恋人の聖地,S0904001163,恋人の聖地
S0904001164,展望台上,S0904001164,展望台上
S090400116400100,展望台上,S0904001164,展望台上
S0904001165,中曽根,S0904001165,中曽根
S090400116500100,中曽根,S0904001165,中曽根
S0904001166,休暇村那須,S0904001166,休暇村那須
S090400116600100,休暇村那須,S0904001166,休暇村那須
S0904001167,大丸温泉,S0904001167,大丸温泉
S090400116700100,大丸温泉,S0904001167,大丸温泉
S090400116700200,大丸温泉,S0904001167,大丸温泉
S0904001168,那須ロープウェイ,S0904001168,那須ロープウェイ
S090400116800100,那須ロープウェイ,S0904001168,那須ロープウェイ
S0904001169,四ツ角,S0904001169,四ツ角
S090400116900100,四ツ角,S0904001169,四ツ角
S090400116900200,四ツ角,S0904001169,四ツ角
S0904001170,百村通り３丁目,S0904001170,百村通り３丁目
S090400117000100,百村通り３丁目,S0904001170,百村通り３丁目
S090400117000200,百村通り３丁目,S0904001170,百村通り３丁目
S0904001171,百村通り４丁目,S0904001171,百村通り４丁目
S090400117100100,百村通り４丁目,S0904001171,百村通り４丁目
S090400117100200,百村通り４丁目,S0904001171,百村通り４丁目
S0904001172,ビーエス工場前,S0904001172,ビーエス工場前
S090400117200100,ビーエス工場前,S0904001172,ビーエス工場前
S090400117200200,ビーエス工場前,S0904001172,ビーエス工場前
S0904001173,鳥の目入口,S0904001173,鳥の目入口
S090400117300100,鳥の目入口,S0904001173,鳥の目入口
S090400117300200,鳥の目入口,S0904001173,鳥の目入口
S0904001174,若松団地,S0904001174,若松団地
S090400117400100,若松団地,S0904001174,若松団地
S090400117400200,若松団地,S0904001174,若松団地
S0904001175,稲村団地,S0904001175,稲村団地
S090400117500100,稲村団地,S0904001175,稲村団地
S090400117500200,稲村団地,S0904001175,稲村団地
S0904001176,東原入口,S0904001176,東原入口
S090400117600100,東原入口,S0904001176,東原入口
S090400117600200,東原入口,S0904001176,東原入口
S0904001177,藤田,S0904001177,藤田
S090400117700100,藤田,S0904001177,藤田
S090400117700200,藤田,S0904001177,藤田
S0904001178,青木東,S0904001178,青木東
S090400117800100,青木東,S0904001178,青木東
S090400117800200,青木東,S0904001178,青木東
S0904001179,青木中,S0904001179,青木中
S090400117900100,青木中,S0904001179,青木中
S090400117900200,青木中,S0904001179,青木中
S0904001180,青木,S0904001180,青木
S090400118000100,青木,S0904001180,青木
S090400118000200,青木,S0904001180,青木
S0904001181,青木別荘前,S0904001181,青木別荘前
S090400118100100,青木別荘前,S0904001181,青木別荘前
S090400118100200,青木別荘前,S0904001181,青木別荘前
S0904001182,開拓事務所前,S0904001182,開拓事務所前
S090400118200100,開拓事務所前,S0904001182,開拓事務所前
S090400118200200,開拓事務所前,S0904001182,開拓事務所前
S0904001183,戸田,S0904001183,戸田
S090400118300100,戸田,S0904001183,戸田
S090400118300200,戸田,S0904001183,戸田
S0904001184,笠木入口,S0904001184,笠木入口
S090400118400100,笠木入口,S0904001184,笠木入口
S090400118400200,笠木入口,S0904001184,笠木入口
S0904001185,穴沢東,S0904001185,穴沢東
S090400118500100,穴沢東,S0904001185,穴沢東
S090400118500200,穴沢東,S0904001185,穴沢東
S0904001186,穴沢農協前,S0904001186,穴沢農協前
S090400118600100,穴沢農協前,S0904001186,穴沢農協前
S090400118600200,穴沢農協前,S0904001186,穴沢農協前
S0904001187,穴沢,S0904001187,穴沢
S090400118700100,穴沢,S0904001187,穴沢
S090400118700200,穴沢,S0904001187,穴沢
S0904001188,松原［那須塩原市］,S0904001188,松原［那須塩原市］
S090400118800100,松原［那須塩原市］,S0904001188,松原［那須塩原市］
S090400118800200,松原［那須塩原市］,S0904001188,松原［那須塩原市］
S0904001189,板室分署前,S0904001189,板室分署前
S090400118900100,板室分署前,S0904001189,板室分署前
S090400118900200,板室分署前,S0904001189,板室分署前
S0904001190,木の俣,S0904001190,木の俣
S090400119000100,木の俣,S0904001190,木の俣
S090400119000200,木の俣,S0904001190,木の俣
S0904001192,幾世橋,S0904001192,幾世橋
S090400119200100,幾世橋,S0904001192,幾世橋
S090400119200200,幾世橋,S0904001192,幾世橋
S0904001193,板室温泉,S0904001193,板室温泉
S090400119300100,板室温泉,S0904001193,板室温泉
S0904001194,奥那須自然休養林入口,S0904001194,奥那須自然休養林入口
S090400119400100,奥那須自然休養林入口,S0904001194,奥那須自然休養林入口
S090400119400200,奥那須自然休養林入口,S0904001194,奥那須自然休養林入口
S0904001195,乙女の滝,S0904001195,乙女の滝
S090400119500100,乙女の滝,S0904001195,乙女の滝
S090400119500200,乙女の滝,S0904001195,乙女の滝
S0904001196,板室本村上,S0904001196,板室本村上
S090400119600100,板室本村上,S0904001196,板室本村上
S090400119600200,板室本村上,S0904001196,板室本村上
S0904001197,板室本村,S0904001197,板室本村
S090400119700100,板室本村,S0904001197,板室本村
S090400119700200,板室本村,S0904001197,板室本村
S0904001198,湯石温泉入口,S0904001198,湯石温泉入口
S090400119800100,湯石温泉入口,S0904001198,湯石温泉入口
S090400119800200,湯石温泉入口,S0904001198,湯石温泉入口
S0904001199,上町［那須町伊王野］,S0904001199,上町［那須町伊王野］
S090400119900100,上町［那須町伊王野］,S0904001199,上町［那須町伊王野］
S0904001201,下町［那須町伊王野］,S0904001201,下町［那須町伊王野］
S090400120100100,下町［那須町伊王野］,S0904001201,下町［那須町伊王野］
S090400120100200,下町［那須町伊王野］,S0904001201,下町［那須町伊王野］
S0904001202,伊王野車庫前,S0904001202,伊王野車庫前
S090400120200100,伊王野車庫前,S0904001202,伊王野車庫前
S090400120200200,伊王野車庫前,S0904001202,伊王野車庫前
S0904001203,下岩崎,S0904001203,下岩崎
S090400120300100,下岩崎,S0904001203,下岩崎
S090400120300200,下岩崎,S0904001203,下岩崎
S0904001204,東岩崎,S0904001204,東岩崎
S090400120400100,東岩崎,S0904001204,東岩崎
S090400120400200,東岩崎,S0904001204,東岩崎
S0904001205,東陽小学校,S0904001205,東陽小学校
S090400120500100,東陽小学校,S0904001205,東陽小学校
S090400120500200,東陽小学校,S0904001205,東陽小学校
S0904001206,下芦野,S0904001206,下芦野
S090400120600100,下芦野,S0904001206,下芦野
S090400120600200,下芦野,S0904001206,下芦野
S0904001207,唐木田,S0904001207,唐木田
S090400120700100,唐木田,S0904001207,唐木田
S090400120700200,唐木田,S0904001207,唐木田
S0904001208,上野町,S0904001208,上野町
S090400120800100,上野町,S0904001208,上野町
S090400120800200,上野町,S0904001208,上野町
S0904001209,芦野仲町,S0904001209,芦野仲町
S090400120900100,芦野仲町,S0904001209,芦野仲町
S090400120900200,芦野仲町,S0904001209,芦野仲町
S0904001210,芦野支所前,S0904001210,芦野支所前
S090400121000100,芦野支所前,S0904001210,芦野支所前
S090400121000200,芦野支所前,S0904001210,芦野支所前
S0904001211,白井入口,S0904001211,白井入口
S090400121100100,白井入口,S0904001211,白井入口
S090400121100200,白井入口,S0904001211,白井入口
S0904001212,塩阿久津,S0904001212,塩阿久津
S090400121200100,塩阿久津,S0904001212,塩阿久津
S090400121200200,塩阿久津,S0904001212,塩阿久津
S0904001213,上塩阿久津,S0904001213,上塩阿久津
S090400121300100,上塩阿久津,S0904001213,上塩阿久津
S090400121300200,上塩阿久津,S0904001213,上塩阿久津
S0904001215,本町下,S0904001215,本町下
S090400121500100,本町下,S0904001215,本町下
S090400121500200,本町下,S0904001215,本町下
S0904001216,本町［那須町］,S0904001216,本町［那須町］
S090400121600100,本町［那須町］,S0904001216,本町［那須町］
S090400121600200,本町［那須町］,S0904001216,本町［那須町］
S0904001217,音羽町,S0904001217,音羽町
S090400121700100,音羽町,S0904001217,音羽町
S0904001218,那須町役場前,S0904001218,那須町役場前
S090400121800100,那須町役場前,S0904001218,那須町役場前
S0904001219,黒田原駅前,S0904001219,黒田原駅前
S090400121900100,黒田原駅前,S0904001219,黒田原駅前
S0904001238,黒須病院前,S0904001238,黒須病院前
S090400123800100,黒須病院前,S0904001238,黒須病院前
S090400123800200,黒須病院前,S0904001238,黒須病院前
S0904001239,氏家仲町,S0904001239,氏家仲町
S090400123900100,氏家仲町,S0904001239,氏家仲町
S090400123900200,氏家仲町,S0904001239,氏家仲町
S0904001240,三輪,S0904001240,三輪
S090400124000100,三輪,S0904001240,三輪
S090400124000200,三輪,S0904001240,三輪
S0904001241,三輪東,S0904001241,三輪東
S090400124100100,三輪東,S0904001241,三輪東
S090400124100200,三輪東,S0904001241,三輪東
S0904001242,下西の原,S0904001242,下西の原
S090400124200100,下西の原,S0904001242,下西の原
S090400124200200,下西の原,S0904001242,下西の原
S0904001243,小川車庫前,S0904001243,小川車庫前
S090400124300100,小川車庫前,S0904001243,小川車庫前
S090400124300200,小川車庫前,S0904001243,小川車庫前
S0904001244,栄町,S0904001244,栄町
S090400124400100,栄町,S0904001244,栄町
S090400124400200,栄町,S0904001244,栄町
S0904001245,寺町［那珂川町］,S0904001245,寺町［那珂川町］
S090400124500100,寺町［那珂川町］,S0904001245,寺町［那珂川町］
S090400124500200,寺町［那珂川町］,S0904001245,寺町［那珂川町］
S0904001246,小川仲町,S0904001246,小川仲町
S090400124600100,小川仲町,S0904001246,小川仲町
S090400124600200,小川仲町,S0904001246,小川仲町
S090400124600300,小川仲町,S0904001246,小川仲町
S090400124600400,小川仲町,S0904001246,小川仲町
S0904001247,小川横町,S0904001247,小川横町
S090400124700100,小川横町,S0904001247,小川横町
S090400124700200,小川横町,S0904001247,小川横町
S0904001249,小川中学校入口,S0904001249,小川中学校入口
S090400124900100,小川中学校入口,S0904001249,小川中学校入口
S090400124900200,小川中学校入口,S0904001249,小川中学校入口
S0904001250,小川屋前,S0904001250,小川屋前
S090400125000100,小川屋前,S0904001250,小川屋前
S090400125000200,小川屋前,S0904001250,小川屋前
S0904001251,上町［那珂川町］,S0904001251,上町［那珂川町］
S090400125100100,上町［那珂川町］,S0904001251,上町［那珂川町］
S090400125100200,上町［那珂川町］,S0904001251,上町［那珂川町］
S0904001252,中の原,S0904001252,中の原
S090400125200100,中の原,S0904001252,中の原
S090400125200200,中の原,S0904001252,中の原
S0904001253,関場,S0904001253,関場
S090400125300100,関場,S0904001253,関場
S090400125300200,関場,S0904001253,関場
S0904001255,田宿,S0904001255,田宿
S090400125500100,田宿,S0904001255,田宿
S090400125500200,田宿,S0904001255,田宿
S0904001256,古宿,S0904001256,古宿
S090400125600100,古宿,S0904001256,古宿
S090400125600200,古宿,S0904001256,古宿
S0904001258,佐良土小学校前,S0904001258,佐良土小学校前
S090400125800100,佐良土小学校前,S0904001258,佐良土小学校前
S090400125800200,佐良土小学校前,S0904001258,佐良土小学校前
S0904001259,西の原,S0904001259,西の原
S090400125900100,西の原,S0904001259,西の原
S090400125900200,西の原,S0904001259,西の原
S0904001260,湯津上中学校入口,S0904001260,湯津上中学校入口
S090400126000100,湯津上中学校入口,S0904001260,湯津上中学校入口
S090400126000200,湯津上中学校入口,S0904001260,湯津上中学校入口
S0904001261,蛭畑,S0904001261,蛭畑
S090400126100100,蛭畑,S0904001261,蛭畑
S090400126100200,蛭畑,S0904001261,蛭畑
S0904001262,蛭田入口,S0904001262,蛭田入口
S090400126200100,蛭田入口,S0904001262,蛭田入口
S090400126200200,蛭田入口,S0904001262,蛭田入口
S0904001263,下品川,S0904001263,下品川
S090400126300100,下品川,S0904001263,下品川
S090400126300200,下品川,S0904001263,下品川
S0904001264,上品川,S0904001264,上品川
S090400126400100,上品川,S0904001264,上品川
S090400126400200,上品川,S0904001264,上品川
S0904001265,東倉骨,S0904001265,東倉骨
S090400126500100,東倉骨,S0904001265,東倉骨
S090400126500200,東倉骨,S0904001265,東倉骨
S0904001266,倉骨,S0904001266,倉骨
S090400126600100,倉骨,S0904001266,倉骨
S090400126600200,倉骨,S0904001266,倉骨
S0904001267,倉骨倉庫前,S0904001267,倉骨倉庫前
S090400126700100,倉骨倉庫前,S0904001267,倉骨倉庫前
S090400126700200,倉骨倉庫前,S0904001267,倉骨倉庫前
S0904001268,鹿畑入口,S0904001268,鹿畑入口
S090400126800100,鹿畑入口,S0904001268,鹿畑入口
S090400126800200,鹿畑入口,S0904001268,鹿畑入口
S0904001270,千丈橋,S0904001270,千丈橋
S090400127000100,千丈橋,S0904001270,千丈橋
S090400127000200,千丈橋,S0904001270,千丈橋
S0904001275,金燈籠,S0904001275,金燈籠
S090400127500100,金燈籠,S0904001275,金燈籠
S090400127500200,金燈籠,S0904001275,金燈籠
S0904001276,トコトコ大田原前,S0904001276,トコトコ大田原前
S090400127600100,トコトコ大田原前,S0904001276,トコトコ大田原前
S090400127600200,トコトコ大田原前,S0904001276,トコトコ大田原前
S0904001277,山の手１丁目,S0904001277,山の手１丁目
S090400127700100,山の手１丁目,S0904001277,山の手１丁目
S090400127700200,山の手１丁目,S0904001277,山の手１丁目
S0904001278,住吉２丁目,S0904001278,住吉２丁目
S090400127800100,住吉２丁目,S0904001278,住吉２丁目
S090400127800200,住吉２丁目,S0904001278,住吉２丁目
S0904001280,住吉１丁目,S0904001280,住吉１丁目
S090400128000100,住吉１丁目,S0904001280,住吉１丁目
S090400128000200,住吉１丁目,S0904001280,住吉１丁目
S0904001281,大田原市役所入口,S0904001281,大田原市役所入口
S090400128100100,大田原市役所入口,S0904001281,大田原市役所入口
S090400128100200,大田原市役所入口,S0904001281,大田原市役所入口
S0904001283,本町［大田原市］,S0904001283,本町［大田原市］
S090400128300100,本町［大田原市］,S0904001283,本町［大田原市］
S090400128300200,本町［大田原市］,S0904001283,本町［大田原市］
S0904001284,一本松,S0904001284,一本松
S090400128400100,一本松,S0904001284,一本松
S090400128400200,一本松,S0904001284,一本松
S0904001285,石林入口,S0904001285,石林入口
S090400128500100,石林入口,S0904001285,石林入口
S090400128500200,石林入口,S0904001285,石林入口
S0904001286,下永田,S0904001286,下永田
S090400128600100,下永田,S0904001286,下永田
S090400128600200,下永田,S0904001286,下永田
S0904001288,赤煉瓦前,S0904001288,赤煉瓦前
S090400128800100,赤煉瓦前,S0904001288,赤煉瓦前
S090400128800200,赤煉瓦前,S0904001288,赤煉瓦前
S0904001289,西那須野駅東口,S0904001289,西那須野駅東口
S090400128900100,西那須野駅東口,S0904001289,西那須野駅東口
S0904001290,ヨークタウン前,S0904001290,ヨークタウン前
S090400129000100,ヨークタウン前,S0904001290,ヨークタウン前
S090400129000200,ヨークタウン前,S0904001290,ヨークタウン前
S0904001291,大高入口,S0904001291,大高入口
S090400129100100,大高入口,S0904001291,大高入口
S090400129100200,大高入口,S0904001291,大高入口
S0904001292,トライアル大田原店前,S0904001292,トライアル大田原店前
S090400129200100,トライアル大田原店前,S0904001292,トライアル大田原店前
S090400129200200,トライアル大田原店前,S0904001292,トライアル大田原店前
S090400129200201,トライアル大田原店前,S0904001292,トライアル大田原店前
S0904001293,那須赤十字病院,S0904001293,那須赤十字病院
S090400129300100,那須赤十字病院,S0904001293,那須赤十字病院
S0904001294,鐺山南,S0904001294,鐺山南
S090400129400100,鐺山南,S0904001294,鐺山南
S090400129400200,鐺山南,S0904001294,鐺山南
S0904001295,高田沼公園入口,S0904001295,高田沼公園入口
S090400129500100,高田沼公園入口,S0904001295,高田沼公園入口
S090400129500200,高田沼公園入口,S0904001295,高田沼公園入口
S0904001296,清原南小,S0904001296,清原南小
S090400129600100,清原南小,S0904001296,清原南小
S090400129600200,清原南小,S0904001296,清原南小
S0904001297,一本杉,S0904001297,一本杉
S090400129700100,一本杉,S0904001297,一本杉
S090400129700200,一本杉,S0904001297,一本杉
S0904001298,小泉,S0904001298,小泉
S090400129800100,小泉,S0904001298,小泉
S090400129800200,小泉,S0904001298,小泉
S0904001299,上篭谷下,S0904001299,上篭谷下
S090400129900100,上篭谷下,S0904001299,上篭谷下
S090400129900200,上篭谷下,S0904001299,上篭谷下
S0904001300,上篭谷,S0904001300,上篭谷
S090400130000100,上篭谷,S0904001300,上篭谷
S090400130000200,上篭谷,S0904001300,上篭谷
S0904001301,石法寺,S0904001301,石法寺
S090400130100100,石法寺,S0904001301,石法寺
S090400130100200,石法寺,S0904001301,石法寺
S0904001313,田町［真岡市］,S0904001313,田町［真岡市］
S090400131300100,田町［真岡市］,S0904001313,田町［真岡市］
S090400131300200,田町［真岡市］,S0904001313,田町［真岡市］
S090400131300300,田町［真岡市］,S0904001313,田町［真岡市］
S090400131300101,田町［真岡市］,S0904001313,田町［真岡市］
S090400131300201,田町［真岡市］,S0904001313,田町［真岡市］
S090400131300301,田町［真岡市］,S0904001313,田町［真岡市］
S0904001314,中の宿,S0904001314,中の宿
S090400131400100,中の宿,S0904001314,中の宿
S090400131400200,中の宿,S0904001314,中の宿
S0904001315,中の宿十文字,S0904001315,中の宿十文字
S090400131500100,中の宿十文字,S0904001315,中の宿十文字
S090400131500200,中の宿十文字,S0904001315,中の宿十文字
S0904001316,駒塚,S0904001316,駒塚
S090400131600100,駒塚,S0904001316,駒塚
S090400131600200,駒塚,S0904001316,駒塚
S0904001317,大前神社前,S0904001317,大前神社前
S090400131700100,大前神社前,S0904001317,大前神社前
S090400131700200,大前神社前,S0904001317,大前神社前
S0904001318,三本木,S0904001318,三本木
S090400131800100,三本木,S0904001318,三本木
S090400131800200,三本木,S0904001318,三本木
S0904001319,若色,S0904001319,若色
S090400131900100,若色,S0904001319,若色
S090400131900200,若色,S0904001319,若色
S0904001320,真岡営業所,S0904001320,真岡営業所
S090400132000100,真岡営業所,S0904001320,真岡営業所
S0904001321,芳賀南小学校前,S0904001321,芳賀南小学校前
S090400132100100,芳賀南小学校前,S0904001321,芳賀南小学校前
S090400132100200,芳賀南小学校前,S0904001321,芳賀南小学校前
S0904001322,上高橋,S0904001322,上高橋
S090400132200100,上高橋,S0904001322,上高橋
S090400132200200,上高橋,S0904001322,上高橋
S0904001323,辻,S0904001323,辻
S090400132300100,辻,S0904001323,辻
S090400132300200,辻,S0904001323,辻
S0904001324,天王寺,S0904001324,天王寺
S090400132400100,天王寺,S0904001324,天王寺
S090400132400200,天王寺,S0904001324,天王寺
S0904001325,西高橋,S0904001325,西高橋
S090400132500100,西高橋,S0904001325,西高橋
S090400132500200,西高橋,S0904001325,西高橋
S0904001326,下高橋,S0904001326,下高橋
S090400132600100,下高橋,S0904001326,下高橋
S090400132600200,下高橋,S0904001326,下高橋
S0904001327,近内,S0904001327,近内
S090400132700100,近内,S0904001327,近内
S090400132700200,近内,S0904001327,近内
S0904001328,大田和入口,S0904001328,大田和入口
S090400132800100,大田和入口,S0904001328,大田和入口
S090400132800200,大田和入口,S0904001328,大田和入口
S0904001329,上飯貝,S0904001329,上飯貝
S090400132900100,上飯貝,S0904001329,上飯貝
S090400132900200,上飯貝,S0904001329,上飯貝
S0904001330,大内中学校前,S0904001330,大内中学校前
S090400133000100,大内中学校前,S0904001330,大内中学校前
S090400133000200,大内中学校前,S0904001330,大内中学校前
S0904001331,中島［真岡市］,S0904001331,中島［真岡市］
S090400133100100,中島［真岡市］,S0904001331,中島［真岡市］
S090400133100200,中島［真岡市］,S0904001331,中島［真岡市］
S0904001332,堀の内［真岡市］,S0904001332,堀の内［真岡市］
S090400133200100,堀の内［真岡市］,S0904001332,堀の内［真岡市］
S090400133200200,堀の内［真岡市］,S0904001332,堀の内［真岡市］
S0904001333,田島入口,S0904001333,田島入口
S090400133300100,田島入口,S0904001333,田島入口
S090400133300200,田島入口,S0904001333,田島入口
S0904001334,西郷入口,S0904001334,西郷入口
S090400133400100,西郷入口,S0904001334,西郷入口
S090400133400200,西郷入口,S0904001334,西郷入口
S0904001335,中郷,S0904001335,中郷
S090400133500100,中郷,S0904001335,中郷
S090400133500200,中郷,S0904001335,中郷
S0904001336,保健所前,S0904001336,保健所前
S090400133600100,保健所前,S0904001336,保健所前
S090400133600200,保健所前,S0904001336,保健所前
S0904001337,泉町,S0904001337,泉町
S090400133700100,泉町,S0904001337,泉町
S090400133700200,泉町,S0904001337,泉町
S0904001338,荒町二,S0904001338,荒町二
S090400133800100,荒町二,S0904001338,荒町二
S090400133800200,荒町二,S0904001338,荒町二
S0904001339,常盤橋,S0904001339,常盤橋
S090400133900100,常盤橋,S0904001339,常盤橋
S090400133900101,常盤橋,S0904001339,常盤橋
S0904001340,大内西小前,S0904001340,大内西小前
S090400134000100,大内西小前,S0904001340,大内西小前
S090400134000200,大内西小前,S0904001340,大内西小前
S0904001341,真岡北陵高校前,S0904001341,真岡北陵高校前
S090400134100100,真岡北陵高校前,S0904001341,真岡北陵高校前
S090400134100200,真岡北陵高校前,S0904001341,真岡北陵高校前
S0904001342,上鷺谷,S0904001342,上鷺谷
S090400134200100,上鷺谷,S0904001342,上鷺谷
S090400134200200,上鷺谷,S0904001342,上鷺谷
S0904001343,赤層入口,S0904001343,赤層入口
S090400134300100,赤層入口,S0904001343,赤層入口
S090400134300200,赤層入口,S0904001343,赤層入口
S0904001344,下鷺谷,S0904001344,下鷺谷
S090400134400100,下鷺谷,S0904001344,下鷺谷
S090400134400200,下鷺谷,S0904001344,下鷺谷
S0904001345,大田山団地入口,S0904001345,大田山団地入口
S090400134500100,大田山団地入口,S0904001345,大田山団地入口
S090400134500200,大田山団地入口,S0904001345,大田山団地入口
S0904001346,西郷西,S0904001346,西郷西
S090400134600100,西郷西,S0904001346,西郷西
S090400134600200,西郷西,S0904001346,西郷西
S0904001347,寺久保,S0904001347,寺久保
S090400134700100,寺久保,S0904001347,寺久保
S090400134700200,寺久保,S0904001347,寺久保
S0904001348,真岡工業高校前,S0904001348,真岡工業高校前
S090400134800100,真岡工業高校前,S0904001348,真岡工業高校前
S090400134800200,真岡工業高校前,S0904001348,真岡工業高校前
S0904001351,城山,S0904001351,城山
S090400135100100,城山,S0904001351,城山
S090400135100200,城山,S0904001351,城山
S0904001357,奥沢小学校入口,S0904001357,奥沢小学校入口
S090400135700100,奥沢小学校入口,S0904001357,奥沢小学校入口
S090400135700200,奥沢小学校入口,S0904001357,奥沢小学校入口
S0904001358,新田入口,S0904001358,新田入口
S090400135800100,新田入口,S0904001358,新田入口
S090400135800200,新田入口,S0904001358,新田入口
S0904001359,ＪＵＫＩ大田原工場前,S0904001359,ＪＵＫＩ大田原工場前
S090400135900100,ＪＵＫＩ大田原工場前,S0904001359,ＪＵＫＩ大田原工場前
S090400135900200,ＪＵＫＩ大田原工場前,S0904001359,ＪＵＫＩ大田原工場前
S0904001360,古町入口,S0904001360,古町入口
S090400136000100,古町入口,S0904001360,古町入口
S090400136000200,古町入口,S0904001360,古町入口
S0904001361,国際医療福祉大学前,S0904001361,国際医療福祉大学前
S090400136100100,国際医療福祉大学前,S0904001361,国際医療福祉大学前
S0904001362,金丸入口,S0904001362,金丸入口
S090400136200100,金丸入口,S0904001362,金丸入口
S090400136200200,金丸入口,S0904001362,金丸入口
S0904001364,八幡神社前,S0904001364,八幡神社前
S090400136400100,八幡神社前,S0904001364,八幡神社前
S090400136400200,八幡神社前,S0904001364,八幡神社前
S0904001365,金丸橋,S0904001365,金丸橋
S090400136500100,金丸橋,S0904001365,金丸橋
S090400136500200,金丸橋,S0904001365,金丸橋
S0904001367,田中入口,S0904001367,田中入口
S090400136700100,田中入口,S0904001367,田中入口
S090400136700200,田中入口,S0904001367,田中入口
S0904001368,清水坂,S0904001368,清水坂
S090400136800100,清水坂,S0904001368,清水坂
S090400136800200,清水坂,S0904001368,清水坂
S0904001369,大豆田,S0904001369,大豆田
S090400136900100,大豆田,S0904001369,大豆田
S090400136900200,大豆田,S0904001369,大豆田
S0904001370,花月前,S0904001370,花月前
S090400137000100,花月前,S0904001370,花月前
S0904001371,向町,S0904001371,向町
S090400137100100,向町,S0904001371,向町
S090400137100200,向町,S0904001371,向町
S090400137100101,向町,S0904001371,向町
S090400137100201,向町,S0904001371,向町
S0904001372,下町［大田原市］,S0904001372,下町［大田原市］
S090400137200100,下町［大田原市］,S0904001372,下町［大田原市］
S090400137200200,下町［大田原市］,S0904001372,下町［大田原市］
S090400137200101,下町［大田原市］,S0904001372,下町［大田原市］
S090400137200201,下町［大田原市］,S0904001372,下町［大田原市］
S0904001374,田町ロータリー,S0904001374,田町ロータリー
S090400137400100,田町ロータリー,S0904001374,田町ロータリー
S0904001375,黒羽支所,S0904001375,黒羽支所
S090400137500100,黒羽支所,S0904001375,黒羽支所
S0904001376,黒羽神社下,S0904001376,黒羽神社下
S090400137600100,黒羽神社下,S0904001376,黒羽神社下
S090400137600200,黒羽神社下,S0904001376,黒羽神社下
S0904001377,大雄寺入口,S0904001377,大雄寺入口
S090400137700100,大雄寺入口,S0904001377,大雄寺入口
S090400137700200,大雄寺入口,S0904001377,大雄寺入口
S0904001378,下前田,S0904001378,下前田
S090400137800100,下前田,S0904001378,下前田
S090400137800200,下前田,S0904001378,下前田
S0904001379,上前田,S0904001379,上前田
S090400137900100,上前田,S0904001379,上前田
S090400137900200,上前田,S0904001379,上前田
S0904001380,黒羽高校入口,S0904001380,黒羽高校入口
S090400138000100,黒羽高校入口,S0904001380,黒羽高校入口
S090400138000200,黒羽高校入口,S0904001380,黒羽高校入口
S090400138000101,黒羽高校入口,S0904001380,黒羽高校入口
S090400138000201,黒羽高校入口,S0904001380,黒羽高校入口
S0904001381,黒羽高校,S0904001381,黒羽高校
S090400138100100,黒羽高校,S0904001381,黒羽高校
S0904001382,堀之内,S0904001382,堀之内
S090400138200100,堀之内,S0904001382,堀之内
S090400138200200,堀之内,S0904001382,堀之内
S0904001383,大輪入口,S0904001383,大輪入口
S090400138300100,大輪入口,S0904001383,大輪入口
S090400138300200,大輪入口,S0904001383,大輪入口
S0904001384,ピアートホール入口,S0904001384,ピアートホール入口
S090400138400100,ピアートホール入口,S0904001384,ピアートホール入口
S090400138400200,ピアートホール入口,S0904001384,ピアートホール入口
S0904001385,五峰の湯,S0904001385,五峰の湯
S090400138500100,五峰の湯,S0904001385,五峰の湯
S0904001387,裁判所前［大田原市］,S0904001387,裁判所前［大田原市］
S090400138700100,裁判所前［大田原市］,S0904001387,裁判所前［大田原市］
S090400138700200,裁判所前［大田原市］,S0904001387,裁判所前［大田原市］
S0904001388,新富三丁目,S0904001388,新富三丁目
S090400138800100,新富三丁目,S0904001388,新富三丁目
S090400138800200,新富三丁目,S0904001388,新富三丁目
S0904001389,原眼科前,S0904001389,原眼科前
S090400138900100,原眼科前,S0904001389,原眼科前
S090400138900200,原眼科前,S0904001389,原眼科前
S0904001390,大田原浅香町,S0904001390,大田原浅香町
S090400139000100,大田原浅香町,S0904001390,大田原浅香町
S090400139000200,大田原浅香町,S0904001390,大田原浅香町
S0904001394,旭町［下野市］,S0904001394,旭町［下野市］
S090400139400100,旭町［下野市］,S0904001394,旭町［下野市］
S090400139400200,旭町［下野市］,S0904001394,旭町［下野市］
S0904001395,大田原市役所,S0904001395,大田原市役所
S090400139500100,大田原市役所,S0904001395,大田原市役所
S0904001396,市体育館前,S0904001396,市体育館前
S090400139600100,市体育館前,S0904001396,市体育館前
S090400139600200,市体育館前,S0904001396,市体育館前
S0904001397,末広橋,S0904001397,末広橋
S090400139700100,末広橋,S0904001397,末広橋
S090400139700200,末広橋,S0904001397,末広橋
S0904001398,五道橋,S0904001398,五道橋
S090400139800100,五道橋,S0904001398,五道橋
S090400139800200,五道橋,S0904001398,五道橋
S0904001399,東武百貨店前,S0904001399,東武百貨店前
S090400139900100,東武百貨店前,S0904001399,東武百貨店前
S090400139900200,東武百貨店前,S0904001399,東武百貨店前
S0904001400,王冠ボウル前,S0904001400,王冠ボウル前
S090400140000100,王冠ボウル前,S0904001400,王冠ボウル前
S090400140000200,王冠ボウル前,S0904001400,王冠ボウル前
S0904001401,カンセキ前［大田原市］,S0904001401,カンセキ前［大田原市］
S090400140100100,カンセキ前［大田原市］,S0904001401,カンセキ前［大田原市］
S090400140100200,カンセキ前［大田原市］,S0904001401,カンセキ前［大田原市］
S0904001403,足銀南出張所,S0904001403,足銀南出張所
S090400140300100,足銀南出張所,S0904001403,足銀南出張所
S090400140300200,足銀南出張所,S0904001403,足銀南出張所
S0904001404,富士見１丁目,S0904001404,富士見１丁目
S090400140400100,富士見１丁目,S0904001404,富士見１丁目
S090400140400200,富士見１丁目,S0904001404,富士見１丁目
S0904001406,あさひ橋［大田原市］,S0904001406,あさひ橋［大田原市］
S090400140600100,あさひ橋［大田原市］,S0904001406,あさひ橋［大田原市］
S090400140600200,あさひ橋［大田原市］,S0904001406,あさひ橋［大田原市］
S0904001407,室町［栃木市］,S0904001407,室町［栃木市］
S090400140700100,室町［栃木市］,S0904001407,室町［栃木市］
S090400140700200,室町［栃木市］,S0904001407,室町［栃木市］
S0904001409,伊野田眼科クリニック前,S0904001409,伊野田眼科クリニック前
S090400140900100,伊野田眼科クリニック前,S0904001409,伊野田眼科クリニック前
S090400140900200,伊野田眼科クリニック前,S0904001409,伊野田眼科クリニック前
S0904001410,弥六,S0904001410,弥六
S090400141000100,弥六,S0904001410,弥六
S090400141000200,弥六,S0904001410,弥六
S0904001411,沓掛,S0904001411,沓掛
S090400141100100,沓掛,S0904001411,沓掛
S090400141100200,沓掛,S0904001411,沓掛
S0904001412,文化会館前［那須塩原市］,S0904001412,文化会館前［那須塩原市］
S090400141200100,文化会館前［那須塩原市］,S0904001412,文化会館前［那須塩原市］
S090400141200200,文化会館前［那須塩原市］,S0904001412,文化会館前［那須塩原市］
S0904001413,下厚崎,S0904001413,下厚崎
S090400141300100,下厚崎,S0904001413,下厚崎
S090400141300200,下厚崎,S0904001413,下厚崎
S0904001414,那須グリコ乳業前,S0904001414,那須グリコ乳業前
S090400141400100,那須グリコ乳業前,S0904001414,那須グリコ乳業前
S090400141400200,那須グリコ乳業前,S0904001414,那須グリコ乳業前
S0904001415,豊浦入口,S0904001415,豊浦入口
S090400141500100,豊浦入口,S0904001415,豊浦入口
S090400141500200,豊浦入口,S0904001415,豊浦入口
S0904001416,市役所入口［那須塩原市］,S0904001416,市役所入口［那須塩原市］
S090400141600100,市役所入口［那須塩原市］,S0904001416,市役所入口［那須塩原市］
S090400141600200,市役所入口［那須塩原市］,S0904001416,市役所入口［那須塩原市］
S0904001417,共墾社,S0904001417,共墾社
S090400141700100,共墾社,S0904001417,共墾社
S090400141700200,共墾社,S0904001417,共墾社
S0904001418,住吉町［那須塩原市］,S0904001418,住吉町［那須塩原市］
S090400141800100,住吉町［那須塩原市］,S0904001418,住吉町［那須塩原市］
S090400141800200,住吉町［那須塩原市］,S0904001418,住吉町［那須塩原市］
S0904001419,市民健康センター前,S0904001419,市民健康センター前
S090400141900100,市民健康センター前,S0904001419,市民健康センター前
S090400141900200,市民健康センター前,S0904001419,市民健康センター前
S0904001420,那須ガーデンアウトレット,S0904001420,那須ガーデンアウトレット
S090400142000100,那須ガーデンアウトレット,S0904001420,那須ガーデンアウトレット
S090400142000200,那須ガーデンアウトレット,S0904001420,那須ガーデンアウトレット
S0904001421,共和大学,S0904001421,共和大学
S090400142100100,共和大学,S0904001421,共和大学
S090400142100200,共和大学,S0904001421,共和大学
S0904001422,那須高原大橋,S0904001422,那須高原大橋
S090400142200100,那須高原大橋,S0904001422,那須高原大橋
S090400142200200,那須高原大橋,S0904001422,那須高原大橋
S0904001423,なす自然の家,S0904001423,なす自然の家
S090400142300100,なす自然の家,S0904001423,なす自然の家
S0904001424,八幡温泉,S0904001424,八幡温泉
S090400142400100,八幡温泉,S0904001424,八幡温泉
S0904001425,白戸川,S0904001425,白戸川
S090400142500100,白戸川,S0904001425,白戸川
S0904001426,矢隠岩北,S0904001426,矢隠岩北
S090400142600100,矢隠岩北,S0904001426,矢隠岩北
S0904001427,北湯入口,S0904001427,北湯入口
S090400142700100,北湯入口,S0904001427,北湯入口
S0904001428,弁天東口,S0904001428,弁天東口
S090400142800100,弁天東口,S0904001428,弁天東口
S0904001432,桜野南,S0904001432,桜野南
S090400143200100,桜野南,S0904001432,桜野南
S090400143200200,桜野南,S0904001432,桜野南
S0904001433,日野町,S0904001433,日野町
S090400143300100,日野町,S0904001433,日野町
S090400143300200,日野町,S0904001433,日野町
S0904001434,旭橋［さくら市］,S0904001434,旭橋［さくら市］
S090400143400100,旭橋［さくら市］,S0904001434,旭橋［さくら市］
S090400143400200,旭橋［さくら市］,S0904001434,旭橋［さくら市］
S0904001435,三箇入口,S0904001435,三箇入口
S090400143500100,三箇入口,S0904001435,三箇入口
S090400143500200,三箇入口,S0904001435,三箇入口
S0904001436,喜連川センター,S0904001436,喜連川センター
S090400143600100,喜連川センター,S0904001436,喜連川センター
S090400143600200,喜連川センター,S0904001436,喜連川センター
S0904001437,向山,S0904001437,向山
S090400143700100,向山,S0904001437,向山
S090400143700200,向山,S0904001437,向山
S0904001438,鹿子畑,S0904001438,鹿子畑
S090400143800100,鹿子畑,S0904001438,鹿子畑
S090400143800200,鹿子畑,S0904001438,鹿子畑
S0904001439,川井口,S0904001439,川井口
S090400143900100,川井口,S0904001439,川井口
S090400143900200,川井口,S0904001439,川井口
S0904001440,軍沢口,S0904001440,軍沢口
S090400144000100,軍沢口,S0904001440,軍沢口
S090400144000200,軍沢口,S0904001440,軍沢口
S0904001441,長坂,S0904001441,長坂
S090400144100100,長坂,S0904001441,長坂
S090400144100200,長坂,S0904001441,長坂
S0904001442,志鳥新道,S0904001442,志鳥新道
S090400144200100,志鳥新道,S0904001442,志鳥新道
S090400144200200,志鳥新道,S0904001442,志鳥新道
S0904001443,上志鳥,S0904001443,上志鳥
S090400144300100,上志鳥,S0904001443,上志鳥
S090400144300200,上志鳥,S0904001443,上志鳥
S0904001444,後沢,S0904001444,後沢
S090400144400100,後沢,S0904001444,後沢
S090400144400200,後沢,S0904001444,後沢
S0904001445,小梨入口,S0904001445,小梨入口
S090400144500100,小梨入口,S0904001445,小梨入口
S090400144500200,小梨入口,S0904001445,小梨入口
S0904001446,小川ゴルフクラブ入口,S0904001446,小川ゴルフクラブ入口
S090400144600100,小川ゴルフクラブ入口,S0904001446,小川ゴルフクラブ入口
S090400144600200,小川ゴルフクラブ入口,S0904001446,小川ゴルフクラブ入口
S0904001447,藤山入口,S0904001447,藤山入口
S090400144700100,藤山入口,S0904001447,藤山入口
S090400144700200,藤山入口,S0904001447,藤山入口
S0904001448,舟戸,S0904001448,舟戸
S090400144800100,舟戸,S0904001448,舟戸
S090400144800200,舟戸,S0904001448,舟戸
S0904001449,小川南,S0904001449,小川南
S090400144900100,小川南,S0904001449,小川南
S090400144900200,小川南,S0904001449,小川南
S0904001450,道の駅ばとう,S0904001450,道の駅ばとう
S090400145000100,道の駅ばとう,S0904001450,道の駅ばとう
S090400145000200,道の駅ばとう,S0904001450,道の駅ばとう
S0904001451,北向田,S0904001451,北向田
S090400145100100,北向田,S0904001451,北向田
S090400145100200,北向田,S0904001451,北向田
S0904001452,都橋,S0904001452,都橋
S090400145200100,都橋,S0904001452,都橋
S090400145200200,都橋,S0904001452,都橋
S0904001453,川崎入口,S0904001453,川崎入口
S090400145300100,川崎入口,S0904001453,川崎入口
S090400145300200,川崎入口,S0904001453,川崎入口
S0904001454,三枚畑,S0904001454,三枚畑
S090400145400100,三枚畑,S0904001454,三枚畑
S090400145400200,三枚畑,S0904001454,三枚畑
S0904001455,下田町,S0904001455,下田町
S090400145500100,下田町,S0904001455,下田町
S090400145500200,下田町,S0904001455,下田町
S0904001456,馬頭田町,S0904001456,馬頭田町
S090400145600100,馬頭田町,S0904001456,馬頭田町
S090400145600200,馬頭田町,S0904001456,馬頭田町
S0904001457,南町,S0904001457,南町
S090400145700100,南町,S0904001457,南町
S090400145700200,南町,S0904001457,南町
S0904001458,那珂川町役場前,S0904001458,那珂川町役場前
S090400145800100,那珂川町役場前,S0904001458,那珂川町役場前
S090400145800200,那珂川町役場前,S0904001458,那珂川町役場前
S090400145800101,那珂川町役場前,S0904001458,那珂川町役場前
S090400145800201,那珂川町役場前,S0904001458,那珂川町役場前
S0904001459,馬頭高校前,S0904001459,馬頭高校前
S090400145900100,馬頭高校前,S0904001459,馬頭高校前
S0904001460,室町［那珂川町］,S0904001460,室町［那珂川町］
S090400146000100,室町［那珂川町］,S0904001460,室町［那珂川町］
S090400146000200,室町［那珂川町］,S0904001460,室町［那珂川町］
S0904001461,新町［那須郡］,S0904001461,新町［那須郡］
S090400146100100,新町［那須郡］,S0904001461,新町［那須郡］
S090400146100200,新町［那須郡］,S0904001461,新町［那須郡］
S0904001462,新町上,S0904001462,新町上
S090400146200100,新町上,S0904001462,新町上
S090400146200200,新町上,S0904001462,新町上
S0904001463,藤沢,S0904001463,藤沢
S090400146300100,藤沢,S0904001463,藤沢
S090400146300200,藤沢,S0904001463,藤沢
S0904001464,馬頭車庫,S0904001464,馬頭車庫
S090400146400100,馬頭車庫,S0904001464,馬頭車庫
S0904001470,東図書館入口,S0904001470,東図書館入口
S090400147000100,東図書館入口,S0904001470,東図書館入口
S090400147000200,東図書館入口,S0904001470,東図書館入口
S0904001471,西公園入口,S0904001471,西公園入口
S090400147100100,西公園入口,S0904001471,西公園入口
S090400147100200,西公園入口,S0904001471,西公園入口
S0904001472,中今泉五丁目,S0904001472,中今泉五丁目
S090400147200100,中今泉五丁目,S0904001472,中今泉五丁目
S090400147200200,中今泉五丁目,S0904001472,中今泉五丁目
S0904001473,越戸北児童公園前,S0904001473,越戸北児童公園前
S090400147300100,越戸北児童公園前,S0904001473,越戸北児童公園前
S090400147300200,越戸北児童公園前,S0904001473,越戸北児童公園前
S0904001474,王子タック南口,S0904001474,王子タック南口
S090400147400100,王子タック南口,S0904001474,王子タック南口
S090400147400200,王子タック南口,S0904001474,王子タック南口
S0904001475,御幸小学校入口,S0904001475,御幸小学校入口
S090400147500100,御幸小学校入口,S0904001475,御幸小学校入口
S090400147500200,御幸小学校入口,S0904001475,御幸小学校入口
S0904001476,御幸本町中,S0904001476,御幸本町中
S090400147600100,御幸本町中,S0904001476,御幸本町中
S090400147600200,御幸本町中,S0904001476,御幸本町中
S0904001477,平出工業団地西,S0904001477,平出工業団地西
S090400147700100,平出工業団地西,S0904001477,平出工業団地西
S090400147700200,平出工業団地西,S0904001477,平出工業団地西
S0904001478,石川外科医院前,S0904001478,石川外科医院前
S090400147800100,石川外科医院前,S0904001478,石川外科医院前
S090400147800200,石川外科医院前,S0904001478,石川外科医院前
S0904001480,今泉町中,S0904001480,今泉町中
S090400148000100,今泉町中,S0904001480,今泉町中
S090400148000200,今泉町中,S0904001480,今泉町中
S0904001481,台病院入口,S0904001481,台病院入口
S090400148100100,台病院入口,S0904001481,台病院入口
S090400148100200,台病院入口,S0904001481,台病院入口
S0904001482,下岡本十字路,S0904001482,下岡本十字路
S090400148200100,下岡本十字路,S0904001482,下岡本十字路
S090400148200200,下岡本十字路,S0904001482,下岡本十字路
S0904001483,台ハイツ入口,S0904001483,台ハイツ入口
S090400148300100,台ハイツ入口,S0904001483,台ハイツ入口
S090400148300200,台ハイツ入口,S0904001483,台ハイツ入口
S0904001484,台岡本下,S0904001484,台岡本下
S090400148400100,台岡本下,S0904001484,台岡本下
S090400148400200,台岡本下,S0904001484,台岡本下
S0904001485,台岡本中,S0904001485,台岡本中
S090400148500100,台岡本中,S0904001485,台岡本中
S090400148500200,台岡本中,S0904001485,台岡本中
S0904001486,台岡本上,S0904001486,台岡本上
S090400148600100,台岡本上,S0904001486,台岡本上
S090400148600200,台岡本上,S0904001486,台岡本上
S0904001487,古里中学校,S0904001487,古里中学校
S090400148700100,古里中学校,S0904001487,古里中学校
S090400148700200,古里中学校,S0904001487,古里中学校
S0904001488,和久,S0904001488,和久
S090400148800100,和久,S0904001488,和久
S0904001489,幸乃湯温泉前,S0904001489,幸乃湯温泉前
S090400148900100,幸乃湯温泉前,S0904001489,幸乃湯温泉前
S090400148900200,幸乃湯温泉前,S0904001489,幸乃湯温泉前
S0904001490,いづも通り,S0904001490,いづも通り
S090400149000100,いづも通り,S0904001490,いづも通り
S0904001491,シンボルロード,S0904001491,シンボルロード
S090400149100100,シンボルロード,S0904001491,シンボルロード
S0904001492,日光行政センター前,S0904001492,日光行政センター前
S090400149200100,日光行政センター前,S0904001492,日光行政センター前
S090400149200200,日光行政センター前,S0904001492,日光行政センター前
S0904001493,日光郷土センター前,S0904001493,日光郷土センター前
S090400149300100,日光郷土センター前,S0904001493,日光郷土センター前
S090400149300200,日光郷土センター前,S0904001493,日光郷土センター前
S0904001494,鉢石町,S0904001494,鉢石町
S090400149400100,鉢石町,S0904001494,鉢石町
S090400149400200,鉢石町,S0904001494,鉢石町
S0904001495,グリム通り,S0904001495,グリム通り
S090400149500100,グリム通り,S0904001495,グリム通り
S090400149500200,グリム通り,S0904001495,グリム通り
S0904001496,佐野日本大学短期大学,S0904001496,佐野日本大学短期大学
S090400149600100,佐野日本大学短期大学,S0904001496,佐野日本大学短期大学
S090400149600200,佐野日本大学短期大学,S0904001496,佐野日本大学短期大学
S090400149600201,佐野日本大学短期大学,S0904001496,佐野日本大学短期大学
S0904001497,真岡女子高校北,S0904001497,真岡女子高校北
S090400149700100,真岡女子高校北,S0904001497,真岡女子高校北
S090400149700101,真岡女子高校北,S0904001497,真岡女子高校北
S0904001498,倭町［栃木市］,S0904001498,倭町［栃木市］
S090400149800100,倭町［栃木市］,S0904001498,倭町［栃木市］
S090400149800200,倭町［栃木市］,S0904001498,倭町［栃木市］
S0904001499,栃木中央小学校入口,S0904001499,栃木中央小学校入口
S090400149900100,栃木中央小学校入口,S0904001499,栃木中央小学校入口
S090400149900200,栃木中央小学校入口,S0904001499,栃木中央小学校入口
S0904001500,とりせん蔵の街店,S0904001500,とりせん蔵の街店
S090400150000100,とりせん蔵の街店,S0904001500,とりせん蔵の街店
S090400150000200,とりせん蔵の街店,S0904001500,とりせん蔵の街店
S0904001501,平井町,S0904001501,平井町
S090400150100100,平井町,S0904001501,平井町
S090400150100200,平井町,S0904001501,平井町
S0904001508,古山小学校,S0904001508,古山小学校
S090400150800100,古山小学校,S0904001508,古山小学校
S090400150800200,古山小学校,S0904001508,古山小学校
S0904001509,グリムの森入口,S0904001509,グリムの森入口
S090400150900100,グリムの森入口,S0904001509,グリムの森入口
S090400150900200,グリムの森入口,S0904001509,グリムの森入口
S0904001510,文教３丁目,S0904001510,文教３丁目
S090400151000100,文教３丁目,S0904001510,文教３丁目
S090400151000200,文教３丁目,S0904001510,文教３丁目
S0904001511,新田上交差点,S0904001511,新田上交差点
S090400151100100,新田上交差点,S0904001511,新田上交差点
S090400151100200,新田上交差点,S0904001511,新田上交差点
S0904001512,若林,S0904001512,若林
S090400151200100,若林,S0904001512,若林
S090400151200200,若林,S0904001512,若林
S0904001513,下古山,S0904001513,下古山
S090400151300100,下古山,S0904001513,下古山
S090400151300200,下古山,S0904001513,下古山
S0904001514,関沢橋,S0904001514,関沢橋
S090400151400100,関沢橋,S0904001514,関沢橋
S090400151400200,関沢橋,S0904001514,関沢橋
S0904001515,おもちゃのまち５丁目,S0904001515,おもちゃのまち５丁目
S090400151500100,おもちゃのまち５丁目,S0904001515,おもちゃのまち５丁目
S090400151500200,おもちゃのまち５丁目,S0904001515,おもちゃのまち５丁目
S0904001516,おもちゃのまち３丁目,S0904001516,おもちゃのまち３丁目
S090400151600100,おもちゃのまち３丁目,S0904001516,おもちゃのまち３丁目
S090400151600200,おもちゃのまち３丁目,S0904001516,おもちゃのまち３丁目
S0904001517,睦小学校入口,S0904001517,睦小学校入口
S090400151700100,睦小学校入口,S0904001517,睦小学校入口
S090400151700200,睦小学校入口,S0904001517,睦小学校入口
S0904001518,幸町４丁目,S0904001518,幸町４丁目
S090400151800100,幸町４丁目,S0904001518,幸町４丁目
S090400151800200,幸町４丁目,S0904001518,幸町４丁目
S0904001519,幸町３丁目,S0904001519,幸町３丁目
S090400151900100,幸町３丁目,S0904001519,幸町３丁目
S090400151900200,幸町３丁目,S0904001519,幸町３丁目
S0904001520,おもちゃのまち交差点北,S0904001520,おもちゃのまち交差点北
S090400152000100,おもちゃのまち交差点北,S0904001520,おもちゃのまち交差点北
S090400152000200,おもちゃのまち交差点北,S0904001520,おもちゃのまち交差点北
S0904001521,あけぼの町,S0904001521,あけぼの町
S090400152100100,あけぼの町,S0904001521,あけぼの町
S090400152100200,あけぼの町,S0904001521,あけぼの町
S0904001527,総合運動公園東,S0904001527,総合運動公園東
S090400152700100,総合運動公園東,S0904001527,総合運動公園東
S0904001528,旧伊王野小学校前,S0904001528,旧伊王野小学校前
S090400152800100,旧伊王野小学校前,S0904001528,旧伊王野小学校前
S090400152800200,旧伊王野小学校前,S0904001528,旧伊王野小学校前
S0904001529,那須高等学校前,S0904001529,那須高等学校前
S090400152900100,那須高等学校前,S0904001529,那須高等学校前
S090400152900200,那須高等学校前,S0904001529,那須高等学校前
S0904001530,乃木参道入口,S0904001530,乃木参道入口
S090400153000100,乃木参道入口,S0904001530,乃木参道入口
S090400153000200,乃木参道入口,S0904001530,乃木参道入口
S0904001531,稲荷神社前,S0904001531,稲荷神社前
S090400153100100,稲荷神社前,S0904001531,稲荷神社前
S090400153100200,稲荷神社前,S0904001531,稲荷神社前
S0904001532,龍城公園前,S0904001532,龍城公園前
S090400153200100,龍城公園前,S0904001532,龍城公園前
S090400153200200,龍城公園前,S0904001532,龍城公園前
S0904001533,大田原温泉前,S0904001533,大田原温泉前
S090400153300100,大田原温泉前,S0904001533,大田原温泉前
S090400153300200,大田原温泉前,S0904001533,大田原温泉前
S0904001534,荒屋敷,S0904001534,荒屋敷
S090400153400100,荒屋敷,S0904001534,荒屋敷
S090400153400200,荒屋敷,S0904001534,荒屋敷
S0904001535,湯泉坂上,S0904001535,湯泉坂上
S090400153500100,湯泉坂上,S0904001535,湯泉坂上
S090400153500200,湯泉坂上,S0904001535,湯泉坂上
S0904001536,上奥沢,S0904001536,上奥沢
S090400153600100,上奥沢,S0904001536,上奥沢
S090400153600200,上奥沢,S0904001536,上奥沢
S0904001537,金丸小学校前,S0904001537,金丸小学校前
S090400153700100,金丸小学校前,S0904001537,金丸小学校前
S090400153700200,金丸小学校前,S0904001537,金丸小学校前
S0904001538,南金丸,S0904001538,南金丸
S090400153800100,南金丸,S0904001538,南金丸
S090400153800200,南金丸,S0904001538,南金丸
S0904001539,黒羽郵便局前,S0904001539,黒羽郵便局前
S090400153900100,黒羽郵便局前,S0904001539,黒羽郵便局前
S0904001540,大田原中学校前,S0904001540,大田原中学校前
S090400154000100,大田原中学校前,S0904001540,大田原中学校前
S0904001541,大田原高校前,S0904001541,大田原高校前
S090400154100100,大田原高校前,S0904001541,大田原高校前
S090400154100200,大田原高校前,S0904001541,大田原高校前
S0904001542,那須塩原駅西口,S0904001542,那須塩原駅西口
S090400154200100,那須塩原駅西口,S0904001542,那須塩原駅西口
S0904001543,黒磯駅西口,S0904001543,黒磯駅西口
S090400154300100,黒磯駅西口,S0904001543,黒磯駅西口
S0904001544,小川郵便局,S0904001544,小川郵便局
S090400154400100,小川郵便局,S0904001544,小川郵便局
S090400154400200,小川郵便局,S0904001544,小川郵便局
S0904001545,佐良土,S0904001545,佐良土
S090400154500100,佐良土,S0904001545,佐良土
S090400154500200,佐良土,S0904001545,佐良土
S0904001546,北大和久,S0904001546,北大和久
S090400154600100,北大和久,S0904001546,北大和久
S090400154600200,北大和久,S0904001546,北大和久
S0904001547,若草二丁目,S0904001547,若草二丁目
S090400154700100,若草二丁目,S0904001547,若草二丁目
S090400154700200,若草二丁目,S0904001547,若草二丁目
S0904001548,若草一丁目,S0904001548,若草一丁目
S090400154800100,若草一丁目,S0904001548,若草一丁目
S090400154800200,若草一丁目,S0904001548,若草一丁目
S0904001549,大田原女子高校前,S0904001549,大田原女子高校前
S090400154900100,大田原女子高校前,S0904001549,大田原女子高校前
S090400154900200,大田原女子高校前,S0904001549,大田原女子高校前
S0904001550,大田原郵便局前,S0904001550,大田原郵便局前
S090400155000100,大田原郵便局前,S0904001550,大田原郵便局前
S090400155000200,大田原郵便局前,S0904001550,大田原郵便局前
S0904001551,運転免許センター,S0904001551,運転免許センター
S090400155100100,運転免許センター,S0904001551,運転免許センター
S090400155100200,運転免許センター,S0904001551,運転免許センター
S0904001552,総合運動公園西,S0904001552,総合運動公園西
S090400155200100,総合運動公園西,S0904001552,総合運動公園西
S0904001553,宇都宮高校,S0904001553,宇都宮高校
S090400155300100,宇都宮高校,S0904001553,宇都宮高校
S090400155300200,宇都宮高校,S0904001553,宇都宮高校
S0904001554,弁才天橋,S0904001554,弁才天橋
S090400155400100,弁才天橋,S0904001554,弁才天橋
S090400155400200,弁才天橋,S0904001554,弁才天橋
S0904001555,大黒天橋,S0904001555,大黒天橋
S090400155500100,大黒天橋,S0904001555,大黒天橋
S090400155500200,大黒天橋,S0904001555,大黒天橋
S0904001556,雨ケ谷一北,S0904001556,雨ケ谷一北
S090400155600100,雨ケ谷一北,S0904001556,雨ケ谷一北
S090400155600200,雨ケ谷一北,S0904001556,雨ケ谷一北
S0904001557,愛宕前公園南,S0904001557,愛宕前公園南
S090400155700100,愛宕前公園南,S0904001557,愛宕前公園南
S090400155700200,愛宕前公園南,S0904001557,愛宕前公園南
S0904001558,ドッグセンター入口,S0904001558,ドッグセンター入口
S090400155800100,ドッグセンター入口,S0904001558,ドッグセンター入口
S090400155800200,ドッグセンター入口,S0904001558,ドッグセンター入口
S0904001559,宇都宮中央高校,S0904001559,宇都宮中央高校
S090400155900100,宇都宮中央高校,S0904001559,宇都宮中央高校
S090400155900200,宇都宮中央高校,S0904001559,宇都宮中央高校
S0904001560,保健福祉センター東口,S0904001560,保健福祉センター東口
S090400156000100,保健福祉センター東口,S0904001560,保健福祉センター東口
S090400156000200,保健福祉センター東口,S0904001560,保健福祉センター東口
S0904001561,大田原女子高校南,S0904001561,大田原女子高校南
S090400156100100,大田原女子高校南,S0904001561,大田原女子高校南
S090400156100200,大田原女子高校南,S0904001561,大田原女子高校南
S0904001562,田代友愛小学校,S0904001562,田代友愛小学校
S090400156200100,田代友愛小学校,S0904001562,田代友愛小学校
S090400156200200,田代友愛小学校,S0904001562,田代友愛小学校
S0904001563,道の駅那須高原友愛の森,S0904001563,道の駅那須高原友愛の森
S090400156300100,道の駅那須高原友愛の森,S0904001563,道の駅那須高原友愛の森
S090400156300101,道の駅那須高原友愛の森,S0904001563,道の駅那須高原友愛の森
S090400156300102,道の駅那須高原友愛の森,S0904001563,道の駅那須高原友愛の森
S0904001564,ウェルネスの森那須,S0904001564,ウェルネスの森那須
S090400156400100,ウェルネスの森那須,S0904001564,ウェルネスの森那須
S090400156400200,ウェルネスの森那須,S0904001564,ウェルネスの森那須
S090400156400201,ウェルネスの森那須,S0904001564,ウェルネスの森那須
S090400156400202,ウェルネスの森那須,S0904001564,ウェルネスの森那須
S0904001565,ホテルエピナール那須,S0904001565,ホテルエピナール那須
S090400156500100,ホテルエピナール那須,S0904001565,ホテルエピナール那須
S090400156500101,ホテルエピナール那須,S0904001565,ホテルエピナール那須
S090400156500102,ホテルエピナール那須,S0904001565,ホテルエピナール那須
S0904001566,トレジャーストーンパーク,S0904001566,トレジャーストーンパーク
S090400156600100,トレジャーストーンパーク,S0904001566,トレジャーストーンパーク
S090400156600200,トレジャーストーンパーク,S0904001566,トレジャーストーンパーク
S090400156600201,トレジャーストーンパーク,S0904001566,トレジャーストーンパーク
S090400156600202,トレジャーストーンパーク,S0904001566,トレジャーストーンパーク
S0904001567,ファミリーロード入口,S0904001567,ファミリーロード入口
S090400156700100,ファミリーロード入口,S0904001567,ファミリーロード入口
S090400156700200,ファミリーロード入口,S0904001567,ファミリーロード入口
S090400156700201,ファミリーロード入口,S0904001567,ファミリーロード入口
S090400156700102,ファミリーロード入口,S0904001567,ファミリーロード入口
S090400156700203,ファミリーロード入口,S0904001567,ファミリーロード入口
S0904001568,那須テディベアミュージアム,S0904001568,那須テディベアミュージアム
S090400156800100,那須テディベアミュージアム,S0904001568,那須テディベアミュージアム
S090400156800200,那須テディベアミュージアム,S0904001568,那須テディベアミュージアム
S090400156800201,那須テディベアミュージアム,S0904001568,那須テディベアミュージアム
S090400156800102,那須テディベアミュージアム,S0904001568,那須テディベアミュージアム
S090400156800203,那須テディベアミュージアム,S0904001568,那須テディベアミュージアム
S0904001569,りんどう湖ファミリー牧場,S0904001569,りんどう湖ファミリー牧場
S090400156900100,りんどう湖ファミリー牧場,S0904001569,りんどう湖ファミリー牧場
S090400156900101,りんどう湖ファミリー牧場,S0904001569,りんどう湖ファミリー牧場
S0904001570,ロイヤルホテル那須,S0904001570,ロイヤルホテル那須
S090400157000100,ロイヤルホテル那須,S0904001570,ロイヤルホテル那須
S090400157000101,ロイヤルホテル那須,S0904001570,ロイヤルホテル那須
S0904001571,東急ハーヴェストクラブ,S0904001571,東急ハーヴェストクラブ
S090400157100100,東急ハーヴェストクラブ,S0904001571,東急ハーヴェストクラブ
S0904001573,ホテルサンバレー那須,S0904001573,ホテルサンバレー那須
S090400157300100,ホテルサンバレー那須,S0904001573,ホテルサンバレー那須
S090400157300101,ホテルサンバレー那須,S0904001573,ホテルサンバレー那須
S0904001574,ＴＯＷＡピュアコテージ,S0904001574,ＴＯＷＡピュアコテージ
S090400157400100,ＴＯＷＡピュアコテージ,S0904001574,ＴＯＷＡピュアコテージ
S0904001575,上横沢,S0904001575,上横沢
S090400157500100,上横沢,S0904001575,上横沢
S090400157500200,上横沢,S0904001575,上横沢
S0904001576,清流の里,S0904001576,清流の里
S090400157600100,清流の里,S0904001576,清流の里
S090400157600200,清流の里,S0904001576,清流の里
S090400157600201,清流の里,S0904001576,清流の里
S0904001577,那須サファリパーク,S0904001577,那須サファリパーク
S090400157700100,那須サファリパーク,S0904001577,那須サファリパーク
S0904001578,下横沢,S0904001578,下横沢
S090400157800100,下横沢,S0904001578,下横沢
S090400157800200,下横沢,S0904001578,下横沢
S0904001579,キャンドルハウスシュシュ,S0904001579,キャンドルハウスシュシュ
S090400157900100,キャンドルハウスシュシュ,S0904001579,キャンドルハウスシュシュ
S090400157900200,キャンドルハウスシュシュ,S0904001579,キャンドルハウスシュシュ
S0904001580,那須渓流パーク,S0904001580,那須渓流パーク
S090400158000100,那須渓流パーク,S0904001580,那須渓流パーク
S0904001581,ペニーレイン那須店入口,S0904001581,ペニーレイン那須店入口
S090400158100100,ペニーレイン那須店入口,S0904001581,ペニーレイン那須店入口
S0904001582,那須ワールドモンキーパーク,S0904001582,那須ワールドモンキーパーク
S090400158200100,那須ワールドモンキーパーク,S0904001582,那須ワールドモンキーパーク
S0904001583,那須とりっくあーとぴあ,S0904001583,那須とりっくあーとぴあ
S090400158300100,那須とりっくあーとぴあ,S0904001583,那須とりっくあーとぴあ
S090400158300200,那須とりっくあーとぴあ,S0904001583,那須とりっくあーとぴあ
S0904001584,ＧＯＯＤＮＥＷＳ,S0904001584,ＧＯＯＤＮＥＷＳ
S090400158400100,ＧＯＯＤＮＥＷＳ,S0904001584,ＧＯＯＤＮＥＷＳ
S090400158400200,ＧＯＯＤＮＥＷＳ,S0904001584,ＧＯＯＤＮＥＷＳ
S0904001585,口ノ町,S0904001585,口ノ町
S090400158500100,口ノ町,S0904001585,口ノ町
S0904001586,ロワジール那須入口,S0904001586,ロワジール那須入口
S090400158600100,ロワジール那須入口,S0904001586,ロワジール那須入口
S0904001587,星の杜中学校・高等学校,S0904001587,星の杜中学校・高等学校
S090400158700100,星の杜中学校・高等学校,S0904001587,星の杜中学校・高等学校
S0904001588,住吉町交差点,S0904001588,住吉町交差点
S090400158800100,住吉町交差点,S0904001588,住吉町交差点
S090400158800200,住吉町交差点,S0904001588,住吉町交差点
S0904001589,正法寺入口,S0904001589,正法寺入口
S090400158900100,正法寺入口,S0904001589,正法寺入口
S090400158900200,正法寺入口,S0904001589,正法寺入口
S0904001590,紫塚交差点,S0904001590,紫塚交差点
S090400159000100,紫塚交差点,S0904001590,紫塚交差点
S090400159000200,紫塚交差点,S0904001590,紫塚交差点
S0904001591,藤和那須リゾート,S0904001591,藤和那須リゾート
S090400159100100,藤和那須リゾート,S0904001591,藤和那須リゾート
S090400159100200,藤和那須リゾート,S0904001591,藤和那須リゾート
S0904001592,岡本駅東口,S0904001592,岡本駅東口
S090400159200100,岡本駅東口,S0904001592,岡本駅東口
S0904001593,宇都宮東病院南,S0904001593,宇都宮東病院南
S090400159300100,宇都宮東病院南,S0904001593,宇都宮東病院南
S090400159300200,宇都宮東病院南,S0904001593,宇都宮東病院南
S0904001594,下平出町北,S0904001594,下平出町北
S090400159400100,下平出町北,S0904001594,下平出町北
S090400159400200,下平出町北,S0904001594,下平出町北
S0904001595,ＪＡ平石支所北,S0904001595,ＪＡ平石支所北
S090400159500100,ＪＡ平石支所北,S0904001595,ＪＡ平石支所北
S090400159500200,ＪＡ平石支所北,S0904001595,ＪＡ平石支所北
S0904001596,平石地区市民センター,S0904001596,平石地区市民センター
S090400159600100,平石地区市民センター,S0904001596,平石地区市民センター
S090400159600200,平石地区市民センター,S0904001596,平石地区市民センター
S0904001597,雨ヶ谷下,S0904001597,雨ヶ谷下
S090400159700100,雨ヶ谷下,S0904001597,雨ヶ谷下
S090400159700200,雨ヶ谷下,S0904001597,雨ヶ谷下
S0904001598,小山市立体育館前,S0904001598,小山市立体育館前
S090400159800100,小山市立体育館前,S0904001598,小山市立体育館前
S090400159800200,小山市立体育館前,S0904001598,小山市立体育館前
S0904001599,神山２丁目,S0904001599,神山２丁目
S090400159900100,神山２丁目,S0904001599,神山２丁目
S090400159900200,神山２丁目,S0904001599,神山２丁目
S0904001600,東城南小前,S0904001600,東城南小前
S090400160000100,東城南小前,S0904001600,東城南小前
S090400160000200,東城南小前,S0904001600,東城南小前
